$GNGSA,A,1,,,,,,,,,,,,,0.0,0.0,0.0*2E
$GPGSA,A,1,,,,,,,,,,,,,0.0,0.0,0.0,1*2D
$GPGSA,A,1,,,,,,,,,,,,,0.0,0.0,0.0,8*24
$GLGSA,A,1,,,,,,,,,,,,,0.0,0.0,0.0,1*31
$BDGSA,A,1,,,,,,,,,,,,,0.0,0.0,0.0,1*3C
$BDGSA,A,1,,,,,,,,,,,,,0.0,0.0,0.0,7*3A
$BDGSA,A,1,,,,,,,,,,,,,0.0,0.0,0.0,8*35
$BDGSA,A,1,,,,,,,,,,,,,0.0,0.0,0.0,9*34
$GAGSA,A,1,,,,,,,,,,,,,0.0,0.0,0.0,7*3A
$GAGSA,A,1,,,,,,,,,,,,,0.0,0.0,0.0,1*3C
$GAGSA,A,1,,,,,,,,,,,,,0.0,0.0,0.0,2*3F
$QZGSA,A,1,,,,,,,,,,,,,0.0,0.0,0.0,1*31
$QZGSA,A,1,,,,,,,,,,,,,0.0,0.0,0.0,8*38
$PIGSA,A,1,,,,,,,,,,,,,0.0,0.0,0.0,8*2A
$GPGSV,4,1,14,05,16,109,,10,17,317,,12,15,135,,15,31,042,,1*6C
$GPGSV,4,2,14,18,69,254,,23,46,343,,24,67,055,,25,08,173,,1*68
$GPGSV,4,3,14,29,07,195,,32,13,263,,1*63
$GPGSV,4,4,14,40,20,257,,41,46,238,,42,46,122,,50,46,122,,1*6A
$GLGSV,3,1,09,66,09,062,,67,34,013,,68,25,315,,76,08,034,,1*7A
$GLGSV,3,2,09,77,37,074,,78,32,148,,81,17,188,,82,46,237,,1*74
$GLGSV,3,3,09,83,37,300,,1*4D
$BDGSV,17,1,65,201,48,120,,202,48,239,,203,69,191,,204,32,111,,1*48
$BDGSV,17,2,65,205,26,262,,206,73,243,,207,09,187,,208,71,031,,1*4E
$BDGSV,17,3,65,209,58,227,,210,08,197,,213,66,356,,216,76,249,,1*4D
$BDGSV,17,4,65,219,08,293,,220,41,333,,223,23,053,,227,05,170,,1*48
$BDGSV,17,5,65,229,27,277,,230,30,214,,232,38,050,,237,52,113,,1*41
$BDGSV,17,6,65,238,73,081,,239,79,302,,246,25,183,,1*48
$BDGSV,17,7,65,201,47,121,,202,45,233,,203,65,190,,204,32,110,,7*4D
$BDGSV,17,8,65,205,24,257,,206,73,243,,207,09,187,,208,71,031,,7*46
$BDGSV,17,9,65,209,58,227,,210,08,197,,213,66,356,,216,76,249,,7*41
$BDGSV,17,10,65,219,08,293,,220,41,333,,223,23,053,,227,05,170,,7*7B
$BDGSV,17,11,65,229,27,277,,230,30,214,,232,38,050,,237,52,113,,7*72
$BDGSV,17,12,65,238,73,081,,239,79,302,,246,25,183,,259,51,125,,7*77
$BDGSV,17,13,65,260,44,242,,261,63,189,,262,31,112,,7*72
$BDGSV,17,14,65,219,08,293,,220,41,333,,223,23,053,,227,05,170,,8*70
$BDGSV,17,15,65,229,27,277,,230,30,214,,232,38,050,,237,52,113,,8*79
$BDGSV,17,16,65,238,73,081,,239,79,302,,246,25,183,,259,51,125,,8*7C
$BDGSV,17,17,65,260,44,242,,261,63,189,,262,31,112,,8*79
$QZGSV,1,1,03,194,25,131,,195,36,167,,196,67,056,,1*77
$GAGSV,3,1,09,104,26,272,,110,30,315,,111,06,324,,112,53,297,,7*70
$GAGSV,3,2,09,119,53,347,,121,22,119,,126,12,158,,127,10,068,,7*7E
$GAGSV,3,3,09,133,54,185,,7*76
$PIGSV,1,1,02,283,48,242,,289,23,281,,8*69
$GPRMC,091904.12,V,2218.984219,N,11410.122983,E,000.0,000.0,250723,,E,N*04
$GPGGA,091904.31,2218.979303,N,11410.110548,E,1,13,1.3,178.7,M,,M,,*7E
$GNGSA,A,3,10,15,18,23,24,25,32,206,208,209,213,216,2.5,1.3,2.1*17
$GPGSA,A,3,10,15,18,23,24,25,32,,,,,,2.5,1.3,2.1,1*24
$GPGSA,A,3,24,,,,,,,,,,,,2.5,1.3,2.1,8*26
$GLGSA,A,3,66,67,68,78,81,82,83,,,,,,2.5,1.3,2.1,1*3D
$BDGSA,A,3,206,208,209,213,216,220,223,229,230,238,239,,2.5,1.3,2.1,1*02
$BDGSA,A,3,,,,,,,,,,,,,2.5,1.3,2.1,7*3E
$BDGSA,A,3,,,,,,,,,,,,,2.5,1.3,2.1,8*31
$BDGSA,A,3,,,,,,,,,,,,,2.5,1.3,2.1,9*30
$GAGSA,A,3,112,,,,,,,,,,,,2.5,1.3,2.1,7*0C
$GAGSA,A,3,112,119,,,,,,,,,,,2.5,1.3,2.1,1*33
$GAGSA,A,3,,,,,,,,,,,,,2.5,1.3,2.1,2*3B
$QZGSA,A,3,194,195,,,,,,,,,,,2.5,1.3,2.1,1*34
$QZGSA,A,3,194,,,,,,,,,,,,2.5,1.3,2.1,8*00
$PIGSA,A,3,,,,,,,,,,,,,2.5,1.3,2.1,8*2E
$GPGSV,5,1,15,05,16,109,,10,17,317,25,12,15,135,,15,31,042,30,1*68
$GPGSV,5,2,15,18,69,254,30,23,46,343,33,24,67,055,37,25,08,173,26,1*6B
$GPGSV,5,3,15,29,07,195,,32,13,263,25,1*64
$GPGSV,5,4,15,40,20,257,,41,46,238,,42,46,122,,50,46,122,,1*6A
$GPGSV,5,5,15,24,67,055,31,8*5C
$GLGSV,3,1,09,66,09,062,25,67,34,013,29,68,25,315,25,76,08,034,,1*71
$GLGSV,3,2,09,77,37,074,,78,32,148,34,81,17,188,20,82,46,237,23,1*70
$GLGSV,3,3,09,83,37,300,26,1*49
$BDGSV,17,1,65,201,48,120,,202,48,239,,203,69,191,,204,32,111,,1*48
$BDGSV,17,2,65,205,26,262,,206,73,243,30,207,09,187,,208,71,031,33,1*4D
$BDGSV,17,3,65,209,58,227,23,210,08,197,,213,66,356,40,216,76,249,31,1*4A
$BDGSV,17,4,65,219,08,293,,220,41,333,35,223,23,053,24,227,05,170,,1*48
$BDGSV,17,5,65,229,27,277,22,230,30,214,23,232,38,050,,237,52,113,,1*40
$BDGSV,17,6,65,238,73,081,28,239,79,302,28,246,25,183,,1*48
$BDGSV,17,7,65,201,47,121,,202,45,233,,203,65,190,,204,32,110,,7*4D
$BDGSV,17,8,65,205,24,257,,206,73,243,,207,09,187,,208,71,031,,7*46
$BDGSV,17,9,65,209,58,227,,210,08,197,,213,66,356,,216,76,249,,7*41
$BDGSV,17,10,65,219,08,293,,220,41,333,,223,23,053,,227,05,170,,7*7B
$BDGSV,17,11,65,229,27,277,,230,30,214,,232,38,050,,237,52,113,,7*72
$BDGSV,17,12,65,238,73,081,,239,79,302,,246,25,183,,259,51,125,,7*77
$BDGSV,17,13,65,260,44,242,,261,63,189,,262,31,112,,7*72
$BDGSV,17,14,65,219,08,293,,220,41,333,,223,23,053,,227,05,170,,8*70
$BDGSV,17,15,65,229,27,277,,230,30,214,,232,38,050,,237,52,113,,8*79
$BDGSV,17,16,65,238,73,081,,239,79,302,,246,25,183,,259,51,125,,8*7C
$BDGSV,17,17,65,260,44,242,,261,63,189,,262,31,112,,8*79
$QZGSV,2,1,05,193,08,059,,194,25,131,27,195,36,167,34,196,67,056,,1*7F
$QZGSV,2,2,05,194,25,131,28,8*76
$GAGSV,4,1,11,104,26,272,,110,30,315,,111,06,324,,112,53,297,25,7*79
$GAGSV,4,2,11,119,53,347,,121,22,119,,126,12,158,,127,10,068,,7*70
$GAGSV,4,3,11,133,54,185,,7*78
$GAGSV,4,4,11,112,53,297,28,119,53,347,38,1*73
$PIGSV,2,1,05,283,48,242,,284,34,165,,285,05,,,287,05,,,8*6D
$PIGSV,2,2,05,289,23,281,,8*6F
$GPRMC,091904.31,A,2218.979303,N,11410.110548,E,000.5,033.0,250723,,E,A*1A
$GPGGA,091905.31,2218.993695,N,11410.110816,E,1,14,1.4,169.8,M,,M,,*78
$GNGSA,A,3,10,15,18,23,24,25,32,206,208,209,213,216,2.5,1.4,2.1*10
$GPGSA,A,3,10,15,18,23,24,25,32,,,,,,2.5,1.4,2.1,1*23
$GPGSA,A,3,24,,,,,,,,,,,,2.5,1.4,2.1,8*21
$GLGSA,A,3,66,67,68,78,81,82,83,,,,,,2.5,1.4,2.1,1*3A
$BDGSA,A,3,206,208,209,213,216,220,223,227,229,230,232,237,2.5,1.4,2.1,1*36
$BDGSA,A,3,232,,,,,,,,,,,,2.5,1.4,2.1,7*0A
$BDGSA,A,3,,,,,,,,,,,,,2.5,1.4,2.1,8*36
$BDGSA,A,3,,,,,,,,,,,,,2.5,1.4,2.1,9*37
$GAGSA,A,3,112,,,,,,,,,,,,2.5,1.4,2.1,7*0B
$GAGSA,A,3,112,119,,,,,,,,,,,2.5,1.4,2.1,1*34
$GAGSA,A,3,,,,,,,,,,,,,2.5,1.4,2.1,2*3C
$QZGSA,A,3,194,195,,,,,,,,,,,2.5,1.4,2.1,1*33
$QZGSA,A,3,194,,,,,,,,,,,,2.5,1.4,2.1,8*07
$PIGSA,A,3,,,,,,,,,,,,,2.5,1.4,2.1,8*29
$GPGSV,6,1,18,05,16,109,,10,17,317,22,12,15,135,,15,31,042,25,1*65
$GPGSV,6,2,18,18,69,254,29,23,46,343,30,24,67,055,34,25,08,173,19,1*61
$GPGSV,6,3,18,29,07,195,,32,13,263,19,1*65
$GPGSV,6,4,18,40,20,257,,41,46,238,,42,46,122,,43,05,,,1*50
$GPGSV,6,5,18,50,46,122,,53,05,,,54,05,,,1*5F
$GPGSV,6,6,18,24,67,055,33,8*53
$GLGSV,3,1,09,66,09,062,20,67,34,013,26,68,25,315,22,76,08,034,,1*7C
$GLGSV,3,2,09,77,37,074,,78,32,148,37,81,17,188,16,82,46,237,09,1*7E
$GLGSV,3,3,09,83,37,300,20,1*4F
$BDGSV,17,1,65,201,48,120,,202,48,239,,203,69,191,,204,32,111,,1*48
$BDGSV,17,2,65,205,26,262,,206,73,243,18,207,09,187,,208,71,031,30,1*44
$BDGSV,17,3,65,209,58,227,13,210,08,197,,213,66,356,30,216,76,249,21,1*4F
$BDGSV,17,4,65,219,08,293,,220,41,333,29,223,23,053,17,227,05,170,24,1*43
$BDGSV,17,5,65,229,27,277,09,230,30,214,19,232,38,050,31,237,52,113,36,1*47
$BDGSV,17,6,65,238,73,081,26,239,79,302,19,246,25,183,,1*44
$BDGSV,17,7,65,201,47,121,,202,45,233,,203,65,190,,204,32,110,,7*4D
$BDGSV,17,8,65,205,24,257,,206,73,243,,207,09,187,,208,71,031,,7*46
$BDGSV,17,9,65,209,58,227,,210,08,197,,213,66,356,,216,76,249,,7*41
$BDGSV,17,10,65,219,08,293,,220,41,333,,223,23,053,,227,05,170,,7*7B
$BDGSV,17,11,65,229,27,277,,230,30,214,,232,38,050,21,237,52,113,,7*71
$BDGSV,17,12,65,238,73,081,,239,79,302,,246,25,183,,259,51,125,,7*77
$BDGSV,17,13,65,260,44,242,,261,63,189,,262,31,112,,7*72
$BDGSV,17,14,65,219,08,293,,220,41,333,,223,23,053,,227,05,170,,8*70
$BDGSV,17,15,65,229,27,277,,230,30,214,,232,38,050,,237,52,113,,8*79
$BDGSV,17,16,65,238,73,081,,239,79,302,,246,25,183,,259,51,125,,8*7C
$BDGSV,17,17,65,260,44,242,,261,63,189,,262,31,112,,8*79
$QZGSV,2,1,05,193,08,059,,194,25,131,20,195,36,167,29,196,67,056,,1*74
$QZGSV,2,2,05,194,25,131,20,8*7E
$GAGSV,4,1,11,104,26,273,,110,30,315,,111,06,324,,112,53,297,28,7*75
$GAGSV,4,2,11,119,53,347,,121,22,119,,126,12,158,,127,10,068,,7*70
$GAGSV,4,3,11,133,54,185,,7*78
$GAGSV,4,4,11,112,53,297,22,119,53,347,36,1*77
$PIGSV,2,1,05,283,48,242,,284,34,165,,285,05,,,287,05,,,8*6D
$PIGSV,2,2,05,289,23,281,,8*6F
$GPRMC,091905.31,A,2218.993695,N,11410.110816,E,000.6,297.0,250723,,E,A*1C
$GPGGA,091906.31,2218.993838,N,11410.105719,E,1,16,1.0,125.7,M,,M,,*77
$GNGSA,A,3,10,12,15,18,23,24,25,32,206,208,209,213,1.5,1.0,1.1*22
$GPGSA,A,3,10,12,15,18,23,24,25,32,,,,,1.5,1.0,1.1,1*24
$GPGSA,A,3,24,,,,,,,,,,,,1.5,1.0,1.1,8*25
$GLGSA,A,3,66,67,68,78,81,82,83,,,,,,1.5,1.0,1.1,1*3E
$BDGSA,A,3,206,208,209,213,216,220,223,227,229,230,232,237,1.5,1.0,1.1,1*32
$BDGSA,A,3,232,237,239,,,,,,,,,,1.5,1.0,1.1,7*00
$BDGSA,A,3,,,,,,,,,,,,,1.5,1.0,1.1,8*32
$BDGSA,A,3,,,,,,,,,,,,,1.5,1.0,1.1,9*33
$GAGSA,A,3,112,,,,,,,,,,,,1.5,1.0,1.1,7*0F
$GAGSA,A,3,112,119,,,,,,,,,,,1.5,1.0,1.1,1*30
$GAGSA,A,3,,,,,,,,,,,,,1.5,1.0,1.1,2*38
$QZGSA,A,3,194,195,,,,,,,,,,,1.5,1.0,1.1,1*37
$QZGSA,A,3,194,,,,,,,,,,,,1.5,1.0,1.1,8*03
$PIGSA,A,3,283,,,,,,,,,,,,1.5,1.0,1.1,8*14
$GPGSV,6,1,18,05,16,109,,10,17,317,22,12,15,135,18,15,31,042,23,1*6A
$GPGSV,6,2,18,18,69,254,27,23,46,343,31,24,67,055,39,25,08,173,09,1*62
$GPGSV,6,3,18,29,07,195,,32,13,263,19,1*65
$GPGSV,6,4,18,40,20,257,,41,46,238,,42,46,122,,43,05,,,1*50
$GPGSV,6,5,18,50,46,122,,53,05,,,54,05,,,1*5F
$GPGSV,6,6,18,24,67,055,40,8*57
$GLGSV,3,1,09,66,09,062,09,67,34,013,29,68,25,315,09,76,08,034,,1*71
$GLGSV,3,2,09,77,37,074,,78,32,148,41,81,17,188,09,82,46,237,09,1*71
$GLGSV,3,3,09,83,37,300,16,1*4A
$BDGSV,17,1,65,201,48,120,,202,48,239,,203,69,191,,204,32,111,,1*48
$BDGSV,17,2,65,205,26,262,,206,73,243,13,207,09,187,,208,71,031,29,1*47
$BDGSV,17,3,65,209,58,227,24,210,08,197,,213,66,356,30,216,76,249,20,1*4A
$BDGSV,17,4,65,219,08,293,,220,41,333,27,223,23,053,22,227,05,170,22,1*4D
$BDGSV,17,5,65,229,27,277,12,230,30,214,29,232,38,050,31,237,52,113,36,1*4E
$BDGSV,17,6,65,238,73,081,23,239,79,302,19,246,25,183,,1*41
$BDGSV,17,7,65,201,47,121,,202,45,233,,203,65,190,,204,32,110,,7*4D
$BDGSV,17,8,65,205,24,257,,206,73,243,,207,09,187,,208,71,031,,7*46
$BDGSV,17,9,65,209,58,227,,210,08,197,,213,66,356,,216,76,250,,7*49
$BDGSV,17,10,65,219,08,293,,220,41,333,,223,23,053,,227,05,170,,7*7B
$BDGSV,17,11,65,229,27,277,,230,30,214,,232,38,050,22,237,52,113,23,7*73
$BDGSV,17,12,65,238,73,081,,239,79,302,27,246,25,183,,259,51,125,,7*72
$BDGSV,17,13,65,260,44,242,,261,63,189,,262,31,112,,7*72
$BDGSV,17,14,65,219,08,293,,220,41,333,,223,23,053,,227,05,170,,8*70
$BDGSV,17,15,65,229,27,277,,230,30,214,,232,38,050,,237,52,113,,8*79
$BDGSV,17,16,65,238,73,081,,239,79,302,,246,25,183,,259,51,125,,8*7C
$BDGSV,17,17,65,260,44,242,,261,63,189,,262,31,112,,8*79
$QZGSV,2,1,05,193,08,059,,194,25,131,21,195,36,167,29,196,67,056,,1*75
$QZGSV,2,2,05,194,25,131,27,8*79
$GAGSV,4,1,11,104,26,273,,110,30,315,,111,06,324,,112,53,297,33,7*7F
$GAGSV,4,2,11,119,53,347,,121,22,119,,126,12,158,,127,10,068,,7*70
$GAGSV,4,3,11,133,54,185,,7*78
$GAGSV,4,4,11,112,53,297,22,119,53,347,33,1*72
$PIGSV,2,1,05,283,48,242,26,284,34,165,,285,05,,,287,05,,,8*69
$PIGSV,2,2,05,289,23,281,,8*6F
$GPRMC,091906.31,A,2218.993838,N,11410.105719,E,001.3,256.0,250723,,E,A*1B
$GPGGA,091907.00,2218.999014,N,11410.123287,E,1,19,0.9,91.8,M,,M,,*48
$GNGSA,A,3,10,12,15,18,23,24,25,32,206,208,209,213,1.5,0.9,1.2*29
$GPGSA,A,3,10,12,15,18,23,24,25,32,,,,,1.5,0.9,1.2,1*2F
$GPGSA,A,3,24,,,,,,,,,,,,1.5,0.9,1.2,8*2E
$GLGSA,A,3,66,67,68,77,78,81,82,83,,,,,1.5,0.9,1.2,1*35
$BDGSA,A,3,206,208,209,213,216,220,223,227,229,230,237,238,1.5,0.9,1.2,1*33
$BDGSA,A,3,232,237,239,,,,,,,,,,1.5,0.9,1.2,7*0B
$BDGSA,A,3,,,,,,,,,,,,,1.5,0.9,1.2,8*39
$BDGSA,A,3,,,,,,,,,,,,,1.5,0.9,1.2,9*38
$GAGSA,A,3,104,112,119,,,,,,,,,,1.5,0.9,1.2,7*08
$GAGSA,A,3,112,119,,,,,,,,,,,1.5,0.9,1.2,1*3B
$GAGSA,A,3,,,,,,,,,,,,,1.5,0.9,1.2,2*33
$QZGSA,A,3,194,195,,,,,,,,,,,1.5,0.9,1.2,1*3C
$QZGSA,A,3,194,,,,,,,,,,,,1.5,0.9,1.2,8*08
$PIGSA,A,3,283,,,,,,,,,,,,1.5,0.9,1.2,8*1F
$GPGSV,6,1,18,05,16,109,,10,17,317,19,12,15,135,17,15,31,042,19,1*64
$GPGSV,6,2,18,18,69,254,25,23,46,343,36,24,67,055,41,25,08,173,09,1*68
$GPGSV,6,3,18,29,07,195,,32,13,263,15,1*69
$GPGSV,6,4,18,40,20,257,,41,46,238,,42,46,122,,43,05,,,1*50
$GPGSV,6,5,18,50,46,122,,53,05,,,54,05,,,1*5F
$GPGSV,6,6,18,24,67,055,40,8*57
$GLGSV,3,1,09,66,09,062,09,67,34,013,26,68,25,315,09,76,08,034,,1*7E
$GLGSV,3,2,09,77,37,074,22,78,32,148,41,81,17,188,09,82,46,237,09,1*71
$GLGSV,3,3,09,83,37,300,16,1*4A
$BDGSV,17,1,65,201,48,120,,202,48,239,,203,69,191,,204,32,111,,1*48
$BDGSV,17,2,65,205,26,262,,206,73,243,19,207,09,187,,208,71,031,40,1*42
$BDGSV,17,3,65,209,58,227,24,210,08,197,,213,66,356,38,216,76,249,28,1*4A
$BDGSV,17,4,65,219,08,293,,220,41,333,36,223,23,053,25,227,05,170,22,1*4A
$BDGSV,17,5,65,229,27,277,12,230,30,214,29,232,38,050,,237,52,113,32,1*48
$BDGSV,17,6,65,238,73,081,32,239,79,302,24,246,25,183,,1*4F
$BDGSV,17,7,65,201,47,121,,202,45,233,,203,65,190,,204,32,110,,7*4D
$BDGSV,17,8,65,205,24,257,,206,73,243,,207,09,187,,208,71,031,,7*46
$BDGSV,17,9,65,209,58,227,,210,08,197,,213,66,356,,216,76,250,,7*49
$BDGSV,17,10,65,219,08,293,,220,41,333,,223,23,053,,227,05,170,,7*7B
$BDGSV,17,11,65,229,27,277,,230,30,214,,232,38,050,22,237,52,113,20,7*70
$BDGSV,17,12,65,238,73,081,,239,79,302,27,246,25,183,,259,51,125,,7*72
$BDGSV,17,13,65,260,44,242,,261,63,189,,262,31,112,,7*72
$BDGSV,17,14,65,219,08,293,,220,41,333,,223,23,053,,227,05,170,,8*70
$BDGSV,17,15,65,229,27,277,,230,30,214,,232,38,050,,237,52,113,,8*79
$BDGSV,17,16,65,238,73,081,,239,79,302,,246,25,183,,259,51,125,,8*7C
$BDGSV,17,17,65,260,44,242,,261,63,189,,262,31,112,,8*79
$QZGSV,2,1,05,193,08,059,,194,25,131,25,195,36,167,34,196,67,056,,1*7D
$QZGSV,2,2,05,194,25,131,28,8*76
$GAGSV,4,1,11,104,26,273,19,110,30,315,,111,06,324,,112,53,297,31,7*75
$GAGSV,4,2,11,119,53,347,40,121,22,119,,126,12,158,,127,10,068,,7*74
$GAGSV,4,3,11,133,54,185,,7*78
$GAGSV,4,4,11,112,53,297,24,119,53,347,33,1*74
$PIGSV,2,1,05,283,48,242,27,284,34,165,,285,05,,,287,05,,,8*68
$PIGSV,2,2,05,289,23,281,,8*6F
$GPRMC,091907.00,A,2218.999014,N,11410.123287,E,000.6,224.4,250723,,E,A*17
$GPGGA,091908.00,2219.004182,N,11410.129848,E,1,20,0.9,29.1,M,,M,,*46
$GNGSA,A,3,10,12,15,18,23,24,25,32,206,208,209,213,1.5,0.9,1.2*29
$GPGSA,A,3,10,12,15,18,23,24,25,32,,,,,1.5,0.9,1.2,1*2F
$GPGSA,A,3,24,,,,,,,,,,,,1.5,0.9,1.2,8*2E
$GLGSA,A,3,66,67,68,77,78,81,82,83,,,,,1.5,0.9,1.2,1*35
$BDGSA,A,3,206,208,209,213,216,220,223,227,229,230,232,237,1.5,0.9,1.2,1*39
$BDGSA,A,3,232,237,239,,,,,,,,,,1.5,0.9,1.2,7*0B
$BDGSA,A,3,,,,,,,,,,,,,1.5,0.9,1.2,8*39
$BDGSA,A,3,,,,,,,,,,,,,1.5,0.9,1.2,9*38
$GAGSA,A,3,104,112,119,,,,,,,,,,1.5,0.9,1.2,7*08
$GAGSA,A,3,112,119,,,,,,,,,,,1.5,0.9,1.2,1*3B
$GAGSA,A,3,,,,,,,,,,,,,1.5,0.9,1.2,2*33
$QZGSA,A,3,194,195,,,,,,,,,,,1.5,0.9,1.2,1*3C
$QZGSA,A,3,194,,,,,,,,,,,,1.5,0.9,1.2,8*08
$PIGSA,A,3,283,,,,,,,,,,,,1.5,0.9,1.2,8*1F
$GPGSV,6,1,18,05,16,109,,10,17,317,16,12,15,135,10,15,31,042,16,1*63
$GPGSV,6,2,18,18,69,254,25,23,46,343,39,24,67,055,40,25,08,173,09,1*66
$GPGSV,6,3,18,29,07,195,,32,13,263,17,1*6B
$GPGSV,6,4,18,40,20,257,,41,46,238,,42,46,122,,43,05,,,1*50
$GPGSV,6,5,18,50,46,122,,53,05,,,54,05,,,1*5F
$GPGSV,6,6,18,24,67,055,40,8*57
$GLGSV,3,1,09,66,09,062,09,67,34,013,26,68,25,315,09,76,08,034,,1*7E
$GLGSV,3,2,09,77,37,074,23,78,32,148,40,81,17,188,09,82,46,237,09,1*71
$GLGSV,3,3,09,83,37,300,14,1*48
$BDGSV,17,1,65,201,48,120,,202,48,239,,203,69,191,,204,32,111,,1*48
$BDGSV,17,2,65,205,26,262,,206,73,243,24,207,09,187,,208,71,031,43,1*4F
$BDGSV,17,3,65,209,58,227,27,210,08,197,,213,66,356,37,216,76,250,29,1*4F
$BDGSV,17,4,65,219,08,293,,220,41,333,37,223,23,053,26,227,05,170,22,1*48
$BDGSV,17,5,65,229,27,277,15,230,30,214,27,232,38,050,22,237,52,113,29,1*4B
$BDGSV,17,6,65,238,73,081,32,239,79,302,22,246,25,183,,1*49
$BDGSV,17,7,65,201,47,121,,202,45,233,,203,65,190,,204,32,110,,7*4D
$BDGSV,17,8,65,205,24,257,,206,73,243,,207,09,187,,208,71,031,,7*46
$BDGSV,17,9,65,209,58,227,,210,08,197,,213,66,356,,216,76,250,,7*49
$BDGSV,17,10,65,219,08,293,,220,41,333,,223,23,053,,227,05,170,,7*7B
$BDGSV,17,11,65,229,27,277,,230,30,214,,232,38,050,23,237,52,113,26,7*77
$BDGSV,17,12,65,238,73,081,,239,79,302,27,246,25,183,,259,51,125,,7*72
$BDGSV,17,13,65,260,44,242,,261,63,189,,262,31,112,,7*72
$BDGSV,17,14,65,219,08,293,,220,41,333,,223,23,053,,227,05,170,,8*70
$BDGSV,17,15,65,229,27,277,,230,30,214,,232,38,050,,237,52,113,,8*79
$BDGSV,17,16,65,238,73,081,,239,79,302,,246,25,183,,259,51,125,,8*7C
$BDGSV,17,17,65,260,44,242,,261,63,189,,262,31,112,,8*79
$QZGSV,2,1,05,193,08,059,,194,25,131,25,195,36,167,36,196,67,056,,1*7F
$QZGSV,2,2,05,194,25,131,28,8*76
$GAGSV,4,1,11,104,26,273,12,110,30,315,,111,06,324,,112,53,297,30,7*7F
$GAGSV,4,2,11,119,53,347,43,121,22,119,,126,12,158,,127,10,068,,7*77
$GAGSV,4,3,11,133,54,185,,7*78
$GAGSV,4,4,11,112,53,297,27,119,53,347,32,1*76
$PIGSV,2,1,05,283,48,242,28,284,34,165,,285,05,,,287,05,,,8*67
$PIGSV,2,2,05,289,23,281,,8*6F
$GPRMC,091908.00,A,2219.004182,N,11410.129848,E,000.2,205.8,250723,,E,A*12
$GPGGA,091909.00,2219.010904,N,11410.126072,E,1,27,0.6,63.0,M,,M,,*4D
$GNGSA,A,3,10,12,15,18,23,24,25,32,206,208,209,213,1.1,0.6,0.9*28
$GPGSA,A,3,10,12,15,18,23,24,25,32,,,,,1.1,0.6,0.9,1*2E
$GPGSA,A,3,24,,,,,,,,,,,,1.1,0.6,0.9,8*2F
$GLGSA,A,3,66,67,68,77,78,81,82,83,,,,,1.1,0.6,0.9,1*34
$BDGSA,A,3,206,208,209,213,216,220,223,227,229,230,232,237,1.1,0.6,0.9,1*38
$BDGSA,A,3,232,237,239,,,,,,,,,,1.1,0.6,0.9,7*0A
$BDGSA,A,3,,,,,,,,,,,,,1.1,0.6,0.9,8*38
$BDGSA,A,3,,,,,,,,,,,,,1.1,0.6,0.9,9*39
$GAGSA,A,3,104,112,119,,,,,,,,,,1.1,0.6,0.9,7*09
$GAGSA,A,3,112,119,,,,,,,,,,,1.1,0.6,0.9,1*3A
$GAGSA,A,3,,,,,,,,,,,,,1.1,0.6,0.9,2*32
$QZGSA,A,3,194,195,,,,,,,,,,,1.1,0.6,0.9,1*3D
$QZGSA,A,3,194,,,,,,,,,,,,1.1,0.6,0.9,8*09
$PIGSA,A,3,283,,,,,,,,,,,,1.1,0.6,0.9,8*1E
$GPGSV,6,1,18,05,16,109,,10,17,317,17,12,15,135,15,15,31,042,15,1*64
$GPGSV,6,2,18,18,69,254,26,23,46,343,40,24,67,055,40,25,08,173,09,1*6B
$GPGSV,6,3,18,29,07,195,,32,13,263,18,1*64
$GPGSV,6,4,18,40,20,257,,41,46,238,,42,46,122,,43,05,,,1*50
$GPGSV,6,5,18,50,46,122,,53,05,,,54,05,,,1*5F
$GPGSV,6,6,18,24,67,055,40,8*57
$GLGSV,3,1,09,66,09,062,09,67,34,013,26,68,25,315,09,76,08,034,,1*7E
$GLGSV,3,2,09,77,37,074,23,78,32,148,39,81,17,188,09,82,46,237,09,1*7F
$GLGSV,3,3,09,83,37,300,16,1*4A
$BDGSV,17,1,65,201,48,120,,202,48,239,,203,69,191,,204,32,111,,1*48
$BDGSV,17,2,65,205,26,262,,206,73,243,26,207,09,187,,208,71,031,42,1*4C
$BDGSV,17,3,65,209,58,227,25,210,08,197,,213,66,356,36,216,76,250,29,1*4C
$BDGSV,17,4,65,219,08,293,,220,41,333,36,223,23,053,26,227,05,170,19,1*41
$BDGSV,17,5,65,229,27,277,24,230,30,214,27,232,38,050,23,237,52,113,30,1*40
$BDGSV,17,6,65,238,73,081,33,239,79,302,22,246,25,183,,1*48
$BDGSV,17,7,65,201,47,121,,202,45,233,,203,65,190,,204,32,110,,7*4D
$BDGSV,17,8,65,205,24,257,,206,73,243,,207,09,187,,208,71,032,,7*45
$BDGSV,17,9,65,209,58,227,,210,08,197,,213,66,356,,216,76,250,,7*49
$BDGSV,17,10,65,219,08,293,,220,41,333,,223,23,053,,227,05,170,,7*7B
$BDGSV,17,11,65,229,27,277,,230,30,214,,232,38,050,27,237,52,113,27,7*72
$BDGSV,17,12,65,238,73,081,,239,79,302,28,246,25,183,,259,51,125,,7*7D
$BDGSV,17,13,65,260,44,242,,261,63,189,,262,31,112,,7*72
$BDGSV,17,14,65,219,08,293,,220,41,333,,223,23,053,,227,05,170,,8*70
$BDGSV,17,15,65,229,27,277,,230,30,214,,232,38,050,,237,52,113,,8*79
$BDGSV,17,16,65,238,73,081,,239,79,302,,246,25,183,,259,51,125,,8*7C
$BDGSV,17,17,65,260,44,242,,261,63,189,,262,31,112,,8*79
$QZGSV,2,1,05,193,08,059,,194,25,131,27,195,36,167,34,196,67,056,,1*7F
$QZGSV,2,2,05,194,25,131,28,8*76
$GAGSV,4,1,11,104,26,273,09,110,30,315,,111,06,324,,112,53,297,30,7*75
$GAGSV,4,2,11,119,53,347,30,121,22,119,,126,12,158,,127,10,068,,7*73
$GAGSV,4,3,11,133,54,185,,7*78
$GAGSV,4,4,11,112,53,297,26,119,53,347,32,1*77
$PIGSV,2,1,05,283,48,242,27,284,34,165,,285,05,,,287,05,,,8*68
$PIGSV,2,2,05,289,23,281,,8*6F
$GPRMC,091909.00,A,2219.010904,N,11410.126072,E,000.5,206.6,250723,,E,A*14
$GPGGA,091910.00,2219.005048,N,11410.125435,E,1,24,0.6,51.5,M,,M,,*43
$GNGSA,A,3,10,12,15,18,23,24,25,32,206,208,209,213,1.3,0.6,1.1*23
$GPGSA,A,3,10,12,15,18,23,24,25,32,,,,,1.3,0.6,1.1,1*25
$GPGSA,A,3,18,23,24,25,,,,,,,,,1.3,0.6,1.1,8*2B
$GLGSA,A,3,66,67,68,77,78,81,82,83,,,,,1.3,0.6,1.1,1*3F
$BDGSA,A,3,206,208,209,213,216,220,223,227,229,230,232,237,1.3,0.6,1.1,1*33
$BDGSA,A,3,220,232,237,239,,,,,,,,,1.3,0.6,1.1,7*31
$BDGSA,A,3,,,,,,,,,,,,,1.3,0.6,1.1,8*33
$BDGSA,A,3,,,,,,,,,,,,,1.3,0.6,1.1,9*32
$GAGSA,A,3,104,112,119,,,,,,,,,,1.3,0.6,1.1,7*02
$GAGSA,A,3,112,119,,,,,,,,,,,1.3,0.6,1.1,1*31
$GAGSA,A,3,,,,,,,,,,,,,1.3,0.6,1.1,2*39
$QZGSA,A,3,194,195,,,,,,,,,,,1.3,0.6,1.1,1*36
$QZGSA,A,3,194,195,,,,,,,,,,,1.3,0.6,1.1,8*3F
$PIGSA,A,3,283,,,,,,,,,,,,1.3,0.6,1.1,8*15
$GPGSV,6,1,21,05,16,109,,10,17,317,17,12,15,135,16,15,31,042,16,1*6E
$GPGSV,6,2,21,18,69,254,24,23,46,343,39,24,67,055,40,25,08,173,22,1*64
$GPGSV,6,3,21,29,07,195,,32,13,263,19,1*6F
$GPGSV,6,4,21,40,20,257,,41,46,238,,42,46,122,,43,05,,,1*5A
$GPGSV,6,5,21,50,46,122,,53,05,,,54,05,,,1*55
$GPGSV,6,6,21,18,69,254,25,23,46,343,28,24,67,055,40,25,08,173,25,8*6F
$GLGSV,3,1,09,66,09,062,09,67,34,013,25,68,25,315,09,76,08,034,,1*7D
$GLGSV,3,2,09,77,37,074,22,78,32,148,39,81,17,188,09,82,46,237,09,1*7E
$GLGSV,3,3,09,83,37,300,17,1*4B
$BDGSV,17,1,65,201,48,120,,202,48,239,,203,69,191,,204,32,111,,1*48
$BDGSV,17,2,65,205,26,262,,206,73,243,26,207,09,187,,208,71,032,42,1*4F
$BDGSV,17,3,65,209,58,227,25,210,08,197,,213,66,356,36,216,76,250,27,1*42
$BDGSV,17,4,65,219,08,293,,220,41,333,34,223,23,053,25,227,05,170,21,1*4B
$BDGSV,17,5,65,229,27,277,25,230,30,214,26,232,38,050,24,237,52,113,31,1*46
$BDGSV,17,6,65,238,73,081,32,239,79,302,18,246,25,183,28,1*4A
$BDGSV,17,7,65,201,47,121,,202,45,233,,203,65,190,,204,32,110,,7*4D
$BDGSV,17,8,65,205,24,257,,206,73,243,,207,09,187,,208,71,032,,7*45
$BDGSV,17,9,65,209,58,227,,210,08,197,,213,66,356,,216,76,250,,7*49
$BDGSV,17,10,65,219,08,293,,220,41,333,33,223,23,053,,227,05,170,,7*7B
$BDGSV,17,11,65,229,27,277,,230,30,214,,232,38,050,27,237,52,113,26,7*73
$BDGSV,17,12,65,238,73,081,,239,79,302,27,246,25,183,,259,51,125,,7*72
$BDGSV,17,13,65,260,44,242,,261,63,189,,262,31,112,,7*72
$BDGSV,17,14,65,219,08,293,,220,41,333,,223,23,053,,227,05,170,,8*70
$BDGSV,17,15,65,229,27,277,,230,30,214,,232,38,050,,237,52,113,,8*79
$BDGSV,17,16,65,238,73,081,,239,79,302,,246,25,183,,259,51,125,,8*7C
$BDGSV,17,17,65,260,44,242,,261,63,189,,262,31,112,,8*79
$QZGSV,2,1,06,193,08,059,,194,25,131,26,195,36,167,32,196,67,056,,1*7B
$QZGSV,2,2,06,194,25,131,28,195,36,167,35,8*7B
$GAGSV,4,1,11,104,26,273,09,110,30,315,,111,06,324,,112,53,297,31,7*74
$GAGSV,4,2,11,119,53,347,41,121,22,119,,126,11,158,,127,10,068,,7*76
$GAGSV,4,3,11,133,54,185,,7*78
$GAGSV,4,4,11,112,53,297,27,119,53,347,32,1*76
$PIGSV,2,1,05,283,48,242,28,284,34,165,,285,05,,,287,05,,,8*67
$PIGSV,2,2,05,289,23,281,,8*6F
$GPRMC,091910.00,A,2219.005048,N,11410.125435,E,000.7,206.6,250723,,E,A*1F
$GPGGA,091911.00,2219.001964,N,11410.125308,E,1,24,0.7,49.3,M,,M,,*46
$GNGSA,A,3,10,12,15,18,23,24,25,32,206,208,209,213,1.2,0.7,1.0*22
$GPGSA,A,3,10,12,15,18,23,24,25,32,,,,,1.2,0.7,1.0,1*24
$GPGSA,A,3,18,23,24,25,,,,,,,,,1.2,0.7,1.0,8*2A
$GLGSA,A,3,66,67,68,77,78,81,82,83,,,,,1.2,0.7,1.0,1*3E
$BDGSA,A,3,206,208,209,213,216,220,223,227,229,230,232,237,1.2,0.7,1.0,1*32
$BDGSA,A,3,220,229,232,237,239,,,,,,,,1.2,0.7,1.0,7*09
$BDGSA,A,3,,,,,,,,,,,,,1.2,0.7,1.0,8*32
$BDGSA,A,3,,,,,,,,,,,,,1.2,0.7,1.0,9*33
$GAGSA,A,3,104,112,119,,,,,,,,,,1.2,0.7,1.0,7*03
$GAGSA,A,3,112,119,,,,,,,,,,,1.2,0.7,1.0,1*30
$GAGSA,A,3,,,,,,,,,,,,,1.2,0.7,1.0,2*38
$QZGSA,A,3,194,195,,,,,,,,,,,1.2,0.7,1.0,1*37
$QZGSA,A,3,194,195,,,,,,,,,,,1.2,0.7,1.0,8*3E
$PIGSA,A,3,283,,,,,,,,,,,,1.2,0.7,1.0,8*14
$GPGSV,6,1,21,05,16,109,,10,17,317,18,12,15,135,16,15,31,042,16,1*61
$GPGSV,6,2,21,18,69,254,25,23,46,343,40,24,67,055,40,25,08,173,20,1*69
$GPGSV,6,3,21,29,07,195,,32,13,263,19,1*6F
$GPGSV,6,4,21,40,20,257,,41,46,238,,42,46,122,,43,05,,,1*5A
$GPGSV,6,5,21,50,46,122,,53,05,,,54,05,,,1*55
$GPGSV,6,6,21,18,69,254,20,23,46,343,29,24,67,055,40,25,08,173,23,8*6D
$GLGSV,3,1,09,66,09,062,09,67,34,013,21,68,25,315,09,76,08,034,,1*79
$GLGSV,3,2,09,77,37,074,20,78,32,148,39,81,17,188,09,82,46,237,09,1*7C
$GLGSV,3,3,09,83,37,300,16,1*4A
$BDGSV,17,1,65,201,48,120,,202,48,239,,203,69,191,,204,32,111,,1*48
$BDGSV,17,2,65,205,26,262,,206,73,243,24,207,09,187,,208,71,032,41,1*4E
$BDGSV,17,3,65,209,58,227,23,210,08,197,,213,66,356,38,216,76,250,24,1*49
$BDGSV,17,4,65,219,08,293,,220,41,333,35,223,23,053,25,227,05,170,20,1*4B
$BDGSV,17,5,65,229,27,277,23,230,30,214,27,232,38,050,23,237,52,113,32,1*45
$BDGSV,17,6,65,238,73,081,33,239,79,302,20,246,25,183,24,1*4C
$BDGSV,17,7,65,201,47,121,,202,45,233,,203,65,190,,204,32,110,,7*4D
$BDGSV,17,8,65,205,24,257,,206,73,243,,207,09,187,,208,71,032,,7*45
$BDGSV,17,9,65,209,58,227,,210,08,197,,213,66,356,,216,76,250,,7*49
$BDGSV,17,10,65,219,08,293,,220,41,333,35,223,23,053,,227,05,170,,7*7D
$BDGSV,17,11,65,229,27,277,24,230,30,214,,232,38,050,28,237,52,113,26,7*7A
$BDGSV,17,12,65,238,73,081,,239,79,302,29,246,25,183,,259,51,125,,7*7C
$BDGSV,17,13,65,260,44,242,,261,63,189,,262,31,112,,7*72
$BDGSV,17,14,65,219,08,293,,220,41,333,,223,23,053,,227,05,170,,8*70
$BDGSV,17,15,65,229,27,277,,230,30,214,,232,38,050,,237,52,113,,8*79
$BDGSV,17,16,65,238,73,081,,239,79,302,,246,25,183,,259,51,125,,8*7C
$BDGSV,17,17,65,260,44,242,,261,63,189,,262,31,112,,8*79
$QZGSV,2,1,06,193,08,059,,194,25,131,24,195,36,167,31,196,67,056,,1*7A
$QZGSV,2,2,06,194,25,131,28,195,36,167,31,8*7F
$GAGSV,4,1,11,104,26,273,09,110,30,315,,111,06,324,,112,53,297,32,7*77
$GAGSV,4,2,11,119,53,347,42,121,22,118,,126,11,158,,127,10,068,,7*74
$GAGSV,4,3,11,133,54,185,,7*78
$GAGSV,4,4,11,112,53,297,27,119,53,347,33,1*77
$PIGSV,2,1,05,283,48,242,27,284,34,165,,285,05,,,287,05,,,8*68
$PIGSV,2,2,05,289,23,281,,8*6F
$GPRMC,091911.00,A,2219.001964,N,11410.125308,E,000.7,206.6,250723,,E,A*14
$GPGGA,091912.00,2219.001548,N,11410.125070,E,1,24,0.7,49.1,M,,M,,*49
$GNGSA,A,3,10,12,15,18,23,24,25,32,206,208,209,213,1.2,0.7,1.0*22
$GPGSA,A,3,10,12,15,18,23,24,25,32,,,,,1.2,0.7,1.0,1*24
$GPGSA,A,3,18,23,24,25,,,,,,,,,1.2,0.7,1.0,8*2A
$GLGSA,A,3,67,68,77,78,81,82,83,,,,,,1.2,0.7,1.0,1*3E
$BDGSA,A,3,206,208,209,213,216,220,223,227,229,230,232,237,1.2,0.7,1.0,1*32
$BDGSA,A,3,220,223,229,232,237,239,,,,,,,1.2,0.7,1.0,7*3A
$BDGSA,A,3,,,,,,,,,,,,,1.2,0.7,1.0,8*32
$BDGSA,A,3,,,,,,,,,,,,,1.2,0.7,1.0,9*33
$GAGSA,A,3,104,112,119,,,,,,,,,,1.2,0.7,1.0,7*03
$GAGSA,A,3,112,119,133,,,,,,,,,,1.2,0.7,1.0,1*01
$GAGSA,A,3,,,,,,,,,,,,,1.2,0.7,1.0,2*38
$QZGSA,A,3,194,195,,,,,,,,,,,1.2,0.7,1.0,1*37
$QZGSA,A,3,194,195,,,,,,,,,,,1.2,0.7,1.0,8*3E
$PIGSA,A,3,283,,,,,,,,,,,,1.2,0.7,1.0,8*14
$GPGSV,6,1,21,05,16,109,,10,17,317,18,12,15,135,16,15,31,042,25,1*61
$GPGSV,6,2,21,18,69,254,32,23,46,343,37,24,67,055,42,25,08,173,21,1*6C
$GPGSV,6,3,21,29,07,195,,32,13,263,20,1*65
$GPGSV,6,4,21,40,20,257,,41,46,238,,42,46,122,,43,05,,,1*5A
$GPGSV,6,5,21,50,46,122,,53,05,,,54,05,,,1*55
$GPGSV,6,6,21,18,69,254,27,23,46,343,31,24,67,055,40,25,08,173,14,8*67
$GLGSV,3,1,09,66,09,062,,67,34,013,26,68,25,315,09,76,08,034,,1*77
$GLGSV,3,2,09,77,37,074,19,78,32,148,36,81,17,188,09,82,46,237,09,1*79
$GLGSV,3,3,09,83,37,300,18,1*44
$BDGSV,17,1,65,201,48,120,,202,48,239,,203,69,191,,204,32,111,,1*48
$BDGSV,17,2,65,205,26,262,,206,73,243,24,207,09,187,,208,71,032,39,1*41
$BDGSV,17,3,65,209,58,227,25,210,08,197,,213,66,356,41,216,76,250,23,1*46
$BDGSV,17,4,65,219,08,293,,220,41,333,35,223,23,053,28,227,05,170,16,1*43
$BDGSV,17,5,65,229,27,277,22,230,30,214,25,232,38,050,24,237,52,113,32,1*41
$BDGSV,17,6,65,238,73,081,29,239,79,302,25,246,25,183,25,1*43
$BDGSV,17,7,65,201,47,121,,202,45,233,,203,65,190,,204,32,110,,7*4D
$BDGSV,17,8,65,205,24,257,,206,73,243,,207,09,187,,208,71,032,,7*45
$BDGSV,17,9,65,209,58,227,,210,08,197,,213,66,356,,216,76,250,,7*49
$BDGSV,17,10,65,219,08,293,,220,41,333,32,223,23,053,20,227,05,170,,7*78
$BDGSV,17,11,65,229,27,277,18,230,30,214,,232,38,050,28,237,52,113,29,7*7A
$BDGSV,17,12,65,238,73,081,,239,79,302,21,246,25,183,,259,51,125,,7*74
$BDGSV,17,13,65,260,44,242,,261,63,189,,262,31,112,,7*72
$BDGSV,17,14,65,219,08,293,,220,41,333,,223,23,053,,227,05,170,,8*70
$BDGSV,17,15,65,229,27,277,,230,30,214,,232,38,050,,237,52,113,,8*79
$BDGSV,17,16,65,238,73,081,,239,79,302,,246,25,183,,259,51,125,,8*7C
$BDGSV,17,17,65,260,44,242,,261,63,189,,262,31,112,,8*79
$QZGSV,2,1,06,193,08,059,,194,25,131,25,195,36,167,32,196,67,056,,1*78
$QZGSV,2,2,06,194,25,131,24,195,36,167,28,8*7B
$GAGSV,4,1,12,104,26,273,09,110,30,315,,111,06,324,,112,53,297,27,7*70
$GAGSV,4,2,12,119,53,347,42,121,22,118,,126,11,158,,127,10,068,,7*77
$GAGSV,4,3,12,133,54,185,,7*7B
$GAGSV,4,4,12,112,53,297,25,119,53,347,32,133,54,185,20,1*79
$PIGSV,2,1,05,283,48,242,28,284,34,165,,285,05,,,287,05,,,8*67
$PIGSV,2,2,05,289,23,281,,8*6F
$GPRMC,091912.00,A,2219.001548,N,11410.125070,E,000.5,206.6,250723,,E,A*1B
$GPGGA,091913.00,2219.002474,N,11410.125004,E,1,17,0.9,47.6,M,,M,,*41
$GNGSA,A,3,10,12,15,18,23,24,25,32,206,208,209,213,1.7,0.9,1.4*2D
$GPGSA,A,3,10,12,15,18,23,24,25,32,,,,,1.7,0.9,1.4,1*2B
$GPGSA,A,3,18,23,24,25,,,,,,,,,1.7,0.9,1.4,8*25
$GLGSA,A,3,67,68,77,78,81,82,83,,,,,,1.7,0.9,1.4,1*31
$BDGSA,A,3,206,208,209,213,216,220,223,227,229,230,232,237,1.7,0.9,1.4,1*3D
$BDGSA,A,3,220,223,229,232,237,239,,,,,,,1.7,0.9,1.4,7*35
$BDGSA,A,3,,,,,,,,,,,,,1.7,0.9,1.4,8*3D
$BDGSA,A,3,,,,,,,,,,,,,1.7,0.9,1.4,9*3C
$GAGSA,A,3,104,112,119,,,,,,,,,,1.7,0.9,1.4,7*0C
$GAGSA,A,3,112,119,133,,,,,,,,,,1.7,0.9,1.4,1*0E
$GAGSA,A,3,119,,,,,,,,,,,,1.7,0.9,1.4,2*0E
$QZGSA,A,3,194,195,,,,,,,,,,,1.7,0.9,1.4,1*38
$QZGSA,A,3,194,195,,,,,,,,,,,1.7,0.9,1.4,8*31
$PIGSA,A,3,283,,,,,,,,,,,,1.7,0.9,1.4,8*1B
$GPGSV,6,1,21,05,16,109,,10,17,317,18,12,15,135,16,15,31,042,27,1*63
$GPGSV,6,2,21,18,69,254,36,23,46,343,38,24,67,055,42,25,08,173,13,1*66
$GPGSV,6,3,21,29,07,195,,32,13,263,19,1*6F
$GPGSV,6,4,21,40,20,257,,41,46,238,,42,46,122,,43,05,,,1*5A
$GPGSV,6,5,21,50,46,122,,53,05,,,54,05,,,1*55
$GPGSV,6,6,21,18,69,254,28,23,46,343,25,24,67,055,35,25,08,173,17,8*6C
$GLGSV,3,1,09,66,09,062,,67,34,013,31,68,25,315,09,76,08,034,,1*71
$GLGSV,3,2,09,77,37,073,18,78,32,148,28,81,17,188,09,82,46,237,09,1*70
$GLGSV,3,3,09,83,37,300,23,1*4C
$BDGSV,17,1,65,201,48,120,,202,48,239,,203,69,191,,204,32,111,,1*48
$BDGSV,17,2,65,205,26,262,,206,73,243,29,207,09,187,,208,71,032,38,1*4D
$BDGSV,17,3,65,209,58,227,22,210,08,197,,213,66,356,42,216,76,250,24,1*45
$BDGSV,17,4,65,219,08,293,,220,41,333,32,223,23,053,29,227,05,170,24,1*44
$BDGSV,17,5,65,229,27,277,19,230,30,214,26,232,38,050,29,237,52,113,33,1*46
$BDGSV,17,6,65,238,73,081,26,239,79,302,24,246,25,183,23,1*4B
$BDGSV,17,7,65,201,47,121,,202,45,233,,203,65,190,,204,32,110,,7*4D
$BDGSV,17,8,65,205,24,257,,206,73,243,,207,09,187,,208,71,032,,7*45
$BDGSV,17,9,65,209,58,227,,210,08,197,,213,66,356,,216,76,250,,7*49
$BDGSV,17,10,65,219,08,293,,220,41,333,28,223,23,053,25,227,05,170,,7*76
$BDGSV,17,11,65,229,27,277,13,230,30,214,,232,38,050,26,237,52,113,23,7*75
$BDGSV,17,12,65,238,73,081,,239,79,302,27,246,25,183,,259,51,125,,7*72
$BDGSV,17,13,65,260,44,242,,261,63,189,,262,31,112,,7*72
$BDGSV,17,14,65,219,08,293,,220,41,333,,223,23,053,,227,05,170,,8*70
$BDGSV,17,15,65,229,27,277,,230,30,214,,232,38,050,,237,52,113,,8*79
$BDGSV,17,16,65,238,73,081,,239,79,302,,246,25,183,,259,51,125,,8*7C
$BDGSV,17,17,65,260,44,242,,261,63,189,,262,31,112,,8*79
$QZGSV,2,1,06,193,08,059,,194,25,131,33,195,36,167,31,196,67,056,,1*7C
$QZGSV,2,2,06,194,25,131,22,195,36,167,22,8*77
$GAGSV,5,1,13,104,26,273,10,110,30,315,,111,06,324,,112,53,297,34,7*7A
$GAGSV,5,2,13,119,53,347,33,121,22,118,,126,11,158,,127,10,068,,7*71
$GAGSV,5,3,13,133,54,185,,7*7B
$GAGSV,5,4,13,112,53,297,17,119,53,347,31,133,54,185,15,1*7D
$GAGSV,5,5,13,119,05,,21,2*4B
$PIGSV,2,1,05,283,48,242,25,284,34,165,,285,05,,,287,05,,,8*6A
$PIGSV,2,2,05,289,23,281,,8*6F
$GPRMC,091913.00,A,2219.002474,N,11410.125004,E,000.5,206.6,250723,,E,A*14
$GPGGA,091914.00,2219.004146,N,11410.124757,E,1,13,1.0,44.3,M,,M,,*4E
$GNGSA,A,3,5,10,12,15,18,23,24,25,32,206,208,209,1.9,1.0,1.6*2C
$GPGSA,A,3,5,10,12,15,18,23,24,25,32,,,,1.9,1.0,1.6,1*1A
$GPGSA,A,3,18,23,24,25,,,,,,,,,1.9,1.0,1.6,8*21
$GLGSA,A,3,67,68,77,78,81,82,83,,,,,,1.9,1.0,1.6,1*35
$BDGSA,A,3,206,208,209,213,216,220,223,227,229,230,232,237,1.9,1.0,1.6,1*39
$BDGSA,A,3,220,223,227,229,232,237,238,239,,,,,1.9,1.0,1.6,7*3F
$BDGSA,A,3,220,,,,,,,,,,,,1.9,1.0,1.6,8*09
$BDGSA,A,3,220,,,,,,,,,,,,1.9,1.0,1.6,9*08
$GAGSA,A,3,104,112,119,133,,,,,,,,,1.9,1.0,1.6,7*39
$GAGSA,A,3,112,119,133,,,,,,,,,,1.9,1.0,1.6,1*0A
$GAGSA,A,3,119,,,,,,,,,,,,1.9,1.0,1.6,2*0A
$QZGSA,A,3,194,195,,,,,,,,,,,1.9,1.0,1.6,1*3C
$QZGSA,A,3,194,195,,,,,,,,,,,1.9,1.0,1.6,8*35
$PIGSA,A,3,283,,,,,,,,,,,,1.9,1.0,1.6,8*1F
$GPGSV,6,1,21,05,16,109,19,10,17,317,24,12,15,135,15,15,31,042,25,1*65
$GPGSV,6,2,21,18,69,254,35,23,46,343,38,24,67,055,41,25,08,173,12,1*67
$GPGSV,6,3,21,29,07,195,,32,13,263,19,1*6F
$GPGSV,6,4,21,40,20,257,,41,46,238,,42,46,122,,43,05,,,1*5A
$GPGSV,6,5,21,50,46,122,,53,05,,,54,05,,,1*55
$GPGSV,6,6,21,18,69,254,29,23,46,343,24,24,67,055,35,25,08,173,20,8*68
$GLGSV,3,1,09,66,09,062,,67,34,013,33,68,25,315,24,76,08,034,,1*7C
$GLGSV,3,2,09,77,37,073,16,78,32,148,29,81,17,188,09,82,46,237,09,1*7F
$GLGSV,3,3,09,83,37,300,20,1*4F
$BDGSV,18,1,66,201,48,120,,202,48,239,,203,69,191,,204,32,111,,1*44
$BDGSV,18,2,66,205,26,262,,206,73,243,30,207,09,187,,208,71,032,34,1*45
$BDGSV,18,3,66,209,58,227,22,210,08,197,,213,66,356,38,216,76,250,27,1*47
$BDGSV,18,4,66,219,08,293,,220,41,333,32,223,23,053,26,227,05,170,15,1*45
$BDGSV,18,5,66,229,27,277,21,230,30,214,25,232,38,050,25,237,52,113,34,1*49
$BDGSV,18,6,66,238,73,081,30,239,79,302,27,246,25,183,26,1*46
$BDGSV,18,7,66,201,47,121,,202,45,233,,203,65,190,,204,32,110,,7*41
$BDGSV,18,8,66,205,24,257,,206,73,243,,207,09,187,,208,71,032,,7*49
$BDGSV,18,9,66,209,58,227,,210,08,197,,213,66,356,,216,76,250,,7*45
$BDGSV,18,10,66,219,08,293,,220,41,333,31,223,23,053,25,227,05,170,18,7*7B
$BDGSV,18,11,66,229,27,277,15,230,30,214,,232,38,050,29,237,52,113,26,7*75
$BDGSV,18,12,66,238,73,081,21,239,79,302,26,246,25,183,,259,51,125,,7*7C
$BDGSV,18,13,66,260,44,242,,261,63,189,,262,31,112,,7*7E
$BDGSV,18,14,66,219,08,293,,220,41,333,,223,23,053,,227,05,170,,8*7C
$BDGSV,18,15,66,229,27,277,,230,30,214,,232,38,050,,237,52,113,,8*75
$BDGSV,18,16,66,238,73,081,,239,79,302,,246,25,183,,259,51,125,,8*70
$BDGSV,18,17,66,260,44,242,,261,63,189,,262,31,112,,8*75
$BDGSV,18,18,66,220,05,,,9*48
$QZGSV,2,1,06,193,08,059,,194,25,131,27,195,36,167,31,196,67,056,,1*79
$QZGSV,2,2,06,194,25,131,23,195,36,167,30,8*75
$GAGSV,5,1,13,104,26,273,12,110,30,315,,111,06,324,,112,53,297,33,7*7F
$GAGSV,5,2,13,119,53,347,32,121,22,118,,126,11,158,,127,10,068,,7*70
$GAGSV,5,3,13,133,54,185,18,7*72
$GAGSV,5,4,13,112,53,297,18,119,53,347,27,133,54,185,23,1*70
$GAGSV,5,5,13,119,05,,09,2*41
$PIGSV,2,1,05,283,48,242,27,284,34,165,,285,05,,,287,05,,,8*68
$PIGSV,2,2,05,289,23,281,,8*6F
$GPRMC,091914.00,A,2219.004146,N,11410.124757,E,000.6,206.6,250723,,E,A*12
$GPGGA,091915.00,2219.004224,N,11410.124090,E,1,18,0.9,40.7,M,,M,,*47
$GNGSA,A,3,5,10,12,15,18,23,24,25,32,206,208,209,1.7,0.9,1.4*28
$GPGSA,A,3,5,10,12,15,18,23,24,25,32,,,,1.7,0.9,1.4,1*1E
$GPGSA,A,3,18,23,24,25,,,,,,,,,1.7,0.9,1.4,8*25
$GLGSA,A,3,67,68,77,78,81,82,83,,,,,,1.7,0.9,1.4,1*31
$BDGSA,A,3,206,208,209,213,216,220,223,227,229,230,232,237,1.7,0.9,1.4,1*3D
$BDGSA,A,3,220,223,227,229,232,237,238,239,,,,,1.7,0.9,1.4,7*3B
$BDGSA,A,3,220,239,,,,,,,,,,,1.7,0.9,1.4,8*35
$BDGSA,A,3,,,,,,,,,,,,,1.7,0.9,1.4,9*3C
$GAGSA,A,3,104,112,119,133,,,,,,,,,1.7,0.9,1.4,7*3D
$GAGSA,A,3,112,119,133,,,,,,,,,,1.7,0.9,1.4,1*0E
$GAGSA,A,3,,,,,,,,,,,,,1.7,0.9,1.4,2*37
$QZGSA,A,3,194,195,,,,,,,,,,,1.7,0.9,1.4,1*38
$QZGSA,A,3,194,195,,,,,,,,,,,1.7,0.9,1.4,8*31
$PIGSA,A,3,283,,,,,,,,,,,,1.7,0.9,1.4,8*1B
$GPGSV,6,1,21,05,16,109,14,10,17,317,19,12,15,135,16,15,31,042,31,1*60
$GPGSV,6,2,21,18,69,254,36,23,46,343,38,24,67,055,34,25,08,173,12,1*66
$GPGSV,6,3,21,29,07,195,,32,13,263,19,1*6F
$GPGSV,6,4,21,40,20,257,,41,46,238,,42,46,122,,43,05,,,1*5A
$GPGSV,6,5,21,50,46,122,,53,05,,,54,05,,,1*55
$GPGSV,6,6,21,18,69,254,24,23,46,343,30,24,67,055,38,25,08,173,20,8*6D
$GLGSV,3,1,09,66,09,062,,67,34,013,31,68,25,315,25,76,08,034,,1*7F
$GLGSV,3,2,09,77,37,073,17,78,32,148,28,81,17,188,09,82,46,237,09,1*7F
$GLGSV,3,3,09,83,37,300,21,1*4E
$BDGSV,17,1,65,201,48,120,,202,48,239,,203,69,191,,204,32,111,,1*48
$BDGSV,17,2,65,205,26,262,,206,73,243,24,207,09,187,,208,71,032,35,1*4D
$BDGSV,17,3,65,209,58,227,15,210,08,197,,213,66,356,36,216,76,250,29,1*4F
$BDGSV,17,4,65,219,08,293,,220,41,333,36,223,23,053,27,227,05,170,27,1*4D
$BDGSV,17,5,65,229,27,277,21,230,30,214,22,232,38,050,27,237,52,113,31,1*45
$BDGSV,17,6,65,238,73,081,26,239,79,302,33,246,25,183,23,1*4D
$BDGSV,17,7,65,201,47,121,,202,45,233,,203,65,190,,204,32,110,,7*4D
$BDGSV,17,8,65,205,24,257,,206,73,243,,207,09,187,,208,71,032,,7*45
$BDGSV,17,9,65,209,58,227,,210,08,197,,213,66,356,,216,76,250,,7*49
$BDGSV,17,10,65,219,08,293,,220,41,333,34,223,23,053,20,227,05,170,20,7*7C
$BDGSV,17,11,65,229,27,277,15,230,30,214,,232,38,050,24,237,52,113,28,7*7A
$BDGSV,17,12,65,238,73,081,28,239,79,302,30,246,25,183,,259,51,125,,7*7E
$BDGSV,17,13,65,260,44,242,,261,63,189,,262,31,112,,7*72
$BDGSV,17,14,65,219,08,293,,220,41,333,28,223,23,053,,227,05,170,,8*7A
$BDGSV,17,15,65,229,27,277,,230,30,214,,232,38,050,,237,52,113,,8*79
$BDGSV,17,16,65,238,73,081,,239,79,302,27,246,25,183,,259,51,125,,8*79
$BDGSV,17,17,65,260,44,242,,261,63,189,,262,31,112,,8*79
$QZGSV,2,1,06,193,08,059,,194,25,131,32,195,36,167,35,196,67,056,,1*79
$QZGSV,2,2,06,194,25,131,28,195,36,167,37,8*79
$GAGSV,4,1,12,104,26,273,13,110,30,315,,111,06,324,,112,53,297,34,7*79
$GAGSV,4,2,12,119,53,347,35,121,22,118,,126,11,158,,127,10,068,,7*77
$GAGSV,4,3,12,133,54,185,20,7*79
$GAGSV,4,4,12,112,53,297,24,119,53,347,27,133,54,185,18,1*77
$PIGSV,2,1,05,283,48,242,24,284,34,165,,285,05,,,287,05,,,8*6B
$PIGSV,2,2,05,289,23,281,,8*6F
$GPRMC,091915.00,A,2219.004224,N,11410.124090,E,001.0,206.6,250723,,E,A*1F
$GPGGA,091916.00,2219.003677,N,11410.124508,E,1,23,0.7,38.4,M,,M,,*4F
$GNGSA,A,3,5,10,12,15,18,23,24,25,32,206,208,209,1.3,0.7,1.1*27
$GPGSA,A,3,5,10,12,15,18,23,24,25,32,,,,1.3,0.7,1.1,1*11
$GPGSA,A,3,18,23,24,25,32,,,,,,,,1.3,0.7,1.1,8*2B
$GLGSA,A,3,67,68,77,78,81,82,83,,,,,,1.3,0.7,1.1,1*3E
$BDGSA,A,3,206,208,209,213,216,220,223,227,229,230,232,237,1.3,0.7,1.1,1*32
$BDGSA,A,3,220,223,227,229,230,232,237,238,239,,,,1.3,0.7,1.1,7*05
$BDGSA,A,3,220,223,229,237,238,239,,,,,,,1.3,0.7,1.1,8*3F
$BDGSA,A,3,220,223,,,,,,,,,,,1.3,0.7,1.1,9*30
$GAGSA,A,3,104,112,119,133,,,,,,,,,1.3,0.7,1.1,7*32
$GAGSA,A,3,112,119,133,,,,,,,,,,1.3,0.7,1.1,1*01
$GAGSA,A,3,,,,,,,,,,,,,1.3,0.7,1.1,2*38
$QZGSA,A,3,194,195,,,,,,,,,,,1.3,0.7,1.1,1*37
$QZGSA,A,3,194,195,,,,,,,,,,,1.3,0.7,1.1,8*3E
$PIGSA,A,3,283,,,,,,,,,,,,1.3,0.7,1.1,8*14
$GPGSV,7,1,22,05,16,109,09,10,17,317,23,12,15,135,14,15,31,042,32,1*66
$GPGSV,7,2,22,18,69,254,35,23,46,343,28,24,67,055,36,25,08,173,25,1*60
$GPGSV,7,3,22,29,07,195,,32,13,263,17,1*63
$GPGSV,7,4,22,40,20,257,,41,46,238,,42,46,122,,43,05,,,1*58
$GPGSV,7,5,22,50,46,122,,53,05,,,54,05,,,1*57
$GPGSV,7,6,22,18,69,254,24,23,46,343,28,24,67,055,34,25,08,173,21,8*6B
$GPGSV,7,7,22,32,05,,,8*69
$GLGSV,3,1,09,66,09,062,,67,34,013,26,68,25,315,25,76,08,034,,1*79
$GLGSV,3,2,09,77,37,073,16,78,32,148,39,81,17,188,09,82,46,237,09,1*7E
$GLGSV,3,3,09,83,37,300,21,1*4E
$BDGSV,18,1,67,201,48,120,,202,48,239,,203,69,191,,204,32,111,,1*45
$BDGSV,18,2,67,205,26,262,,206,73,243,21,207,09,187,,208,71,032,39,1*49
$BDGSV,18,3,67,209,58,227,17,210,08,197,,213,66,356,39,216,76,250,30,1*47
$BDGSV,18,4,67,219,08,293,,220,41,333,40,223,23,053,24,227,05,170,30,1*44
$BDGSV,18,5,67,229,27,277,20,230,30,214,23,232,38,050,30,237,52,113,23,1*4D
$BDGSV,18,6,67,238,73,081,27,239,79,302,27,246,25,183,23,1*44
$BDGSV,18,7,67,201,47,121,,202,45,233,,203,65,190,,204,32,110,,7*40
$BDGSV,18,8,67,205,24,257,,206,73,243,,207,09,187,,208,71,032,,7*48
$BDGSV,18,9,67,209,58,227,,210,08,197,,213,66,356,,216,76,250,,7*44
$BDGSV,18,10,67,219,08,293,,220,41,333,36,223,23,053,22,227,05,170,27,7*76
$BDGSV,18,11,67,229,27,277,14,230,30,214,17,232,38,050,28,237,52,113,23,7*77
$BDGSV,18,12,67,238,73,081,27,239,79,302,26,246,25,183,,259,51,125,,7*7B
$BDGSV,18,13,67,260,44,242,,261,63,189,,262,31,112,,7*7F
$BDGSV,18,14,67,219,08,293,,220,41,333,28,223,23,053,,227,05,170,,8*77
$BDGSV,18,15,67,229,27,277,,230,30,214,,232,38,050,,237,52,113,23,8*75
$BDGSV,18,16,67,238,73,081,,239,79,302,25,246,25,183,,259,51,125,,8*76
$BDGSV,18,17,67,260,44,242,,261,63,189,,262,31,112,,8*74
$BDGSV,18,18,67,220,05,,,223,05,,,9*7F
$QZGSV,2,1,06,193,08,059,,194,25,131,34,195,36,167,34,196,67,056,,1*7E
$QZGSV,2,2,06,194,25,131,26,195,36,167,40,8*77
$GAGSV,4,1,12,104,26,273,14,110,30,315,,111,06,324,,112,53,297,30,7*7A
$GAGSV,4,2,12,119,53,347,32,121,22,118,,126,11,158,,127,10,068,,7*70
$GAGSV,4,3,12,133,54,185,20,7*79
$GAGSV,4,4,12,112,53,297,16,119,53,347,27,133,54,185,16,1*78
$PIGSV,2,1,05,283,48,242,23,284,34,165,,285,05,,,287,05,,,8*6C
$PIGSV,2,2,05,289,23,281,,8*6F
$GPRMC,091916.00,A,2219.003677,N,11410.124508,E,000.7,206.6,250723,,E,A*1B
$GPGGA,091917.00,2219.002948,N,11410.125142,E,1,25,0.6,36.9,M,,M,,*43
$GNGSA,A,3,5,10,12,15,18,23,24,25,32,206,208,209,1.2,0.6,1.0*26
$GPGSA,A,3,5,10,12,15,18,23,24,25,32,,,,1.2,0.6,1.0,1*10
$GPGSA,A,3,18,23,24,25,,,,,,,,,1.2,0.6,1.0,8*2B
$GLGSA,A,3,67,68,77,78,81,82,83,,,,,,1.2,0.6,1.0,1*3F
$BDGSA,A,3,206,208,209,213,216,220,223,227,229,230,232,237,1.2,0.6,1.0,1*33
$BDGSA,A,3,220,223,227,229,230,232,237,238,239,,,,1.2,0.6,1.0,7*04
$BDGSA,A,3,220,223,229,230,237,238,239,,,,,,1.2,0.6,1.0,8*0F
$BDGSA,A,3,220,,,,,,,,,,,,1.2,0.6,1.0,9*02
$GAGSA,A,3,104,112,119,133,,,,,,,,,1.2,0.6,1.0,7*33
$GAGSA,A,3,112,119,133,,,,,,,,,,1.2,0.6,1.0,1*00
$GAGSA,A,3,,,,,,,,,,,,,1.2,0.6,1.0,2*39
$QZGSA,A,3,194,195,,,,,,,,,,,1.2,0.6,1.0,1*36
$QZGSA,A,3,194,195,,,,,,,,,,,1.2,0.6,1.0,8*3F
$PIGSA,A,3,283,,,,,,,,,,,,1.2,0.6,1.0,8*15
$GPGSV,6,1,21,05,16,109,09,10,17,317,24,12,15,135,13,15,31,042,30,1*66
$GPGSV,6,2,21,18,69,254,35,23,46,343,23,24,67,055,40,25,08,173,26,1*6B
$GPGSV,6,3,21,29,07,195,,32,13,263,17,1*61
$GPGSV,6,4,21,40,20,257,,41,46,238,,42,46,122,,43,05,,,1*5A
$GPGSV,6,5,21,50,46,122,,53,05,,,54,05,,,1*55
$GPGSV,6,6,21,18,69,254,28,23,46,343,28,24,67,055,35,25,08,173,21,8*64
$GLGSV,3,1,09,66,09,062,,67,34,013,19,68,25,315,30,76,08,034,,1*71
$GLGSV,3,2,09,77,37,073,14,78,32,148,38,81,17,188,09,82,46,237,09,1*7D
$GLGSV,3,3,09,83,37,300,15,1*49
$BDGSV,18,1,66,201,48,120,,202,48,239,,203,69,191,,204,32,111,,1*44
$BDGSV,18,2,66,205,26,262,,206,73,243,19,207,09,187,,208,71,032,35,1*4F
$BDGSV,18,3,66,209,58,227,17,210,08,197,,213,66,356,36,216,76,250,29,1*41
$BDGSV,18,4,66,219,08,293,,220,41,333,39,223,23,053,26,227,05,170,33,1*4A
$BDGSV,18,5,66,229,27,277,19,230,30,214,25,232,38,050,30,237,52,113,26,1*45
$BDGSV,18,6,66,238,73,081,27,239,79,302,28,246,25,183,24,1*4D
$BDGSV,18,7,66,201,47,121,,202,45,233,,203,65,190,,204,32,110,,7*41
$BDGSV,18,8,66,205,24,257,,206,73,243,,207,09,187,,208,71,032,,7*49
$BDGSV,18,9,66,209,58,227,,210,08,197,,213,66,356,,216,76,250,,7*45
$BDGSV,18,10,66,219,08,293,,220,41,333,34,223,23,053,26,227,05,170,26,7*70
$BDGSV,18,11,66,229,27,277,14,230,30,214,15,232,38,050,29,237,52,113,25,7*73
$BDGSV,18,12,66,238,73,081,25,239,79,302,25,246,25,183,,259,51,125,,7*7B
$BDGSV,18,13,66,260,44,242,,261,63,189,,262,31,112,,7*7E
$BDGSV,18,14,66,219,08,293,,220,41,333,31,223,23,053,,227,05,170,,8*7E
$BDGSV,18,15,66,229,27,277,,230,30,214,,232,38,050,,237,52,113,24,8*73
$BDGSV,18,16,66,238,73,081,24,239,79,302,27,246,25,183,,259,51,125,,8*73
$BDGSV,18,17,66,260,44,242,,261,63,189,,262,31,112,,8*75
$BDGSV,18,18,66,220,05,,,9*48
$QZGSV,2,1,06,193,08,059,,194,25,131,33,195,36,167,34,196,67,057,,1*78
$QZGSV,2,2,06,194,25,131,25,195,36,167,40,8*74
$GAGSV,4,1,12,104,26,273,13,110,30,315,,111,06,324,,112,53,297,31,7*7C
$GAGSV,4,2,12,119,53,347,34,121,22,118,,126,11,158,,127,10,068,,7*76
$GAGSV,4,3,12,133,54,185,27,7*7E
$GAGSV,4,4,12,112,53,297,25,119,53,347,29,133,54,185,16,1*76
$PIGSV,2,1,05,283,48,242,22,284,34,165,,285,05,,,287,05,,,8*6D
$PIGSV,2,2,05,289,23,281,,8*6F
$GPRMC,091917.00,A,2219.002948,N,11410.125142,E,000.8,206.6,250723,,E,A*1C
$GPGGA,091918.00,2219.004390,N,11410.126207,E,1,15,1.0,31.7,M,,M,,*49
$GNGSA,A,3,5,10,12,15,18,23,24,25,32,206,208,209,2.2,1.0,1.9*2B
$GPGSA,A,3,5,10,12,15,18,23,24,25,32,,,,2.2,1.0,1.9,1*1D
$GPGSA,A,3,18,23,24,25,32,,,,,,,,2.2,1.0,1.9,8*27
$GLGSA,A,3,66,67,68,77,78,81,82,83,,,,,2.2,1.0,1.9,1*32
$BDGSA,A,3,206,208,209,213,216,220,223,227,229,230,232,237,2.2,1.0,1.9,1*3E
$BDGSA,A,3,220,223,227,229,230,232,237,238,239,,,,2.2,1.0,1.9,7*09
$BDGSA,A,3,220,223,229,230,237,238,239,,,,,,2.2,1.0,1.9,8*02
$BDGSA,A,3,,,,,,,,,,,,,2.2,1.0,1.9,9*3F
$GAGSA,A,3,104,112,119,133,,,,,,,,,2.2,1.0,1.9,7*3E
$GAGSA,A,3,112,119,133,,,,,,,,,,2.2,1.0,1.9,1*0D
$GAGSA,A,3,,,,,,,,,,,,,2.2,1.0,1.9,2*34
$QZGSA,A,3,194,195,,,,,,,,,,,2.2,1.0,1.9,1*3B
$QZGSA,A,3,194,195,,,,,,,,,,,2.2,1.0,1.9,8*32
$PIGSA,A,3,283,,,,,,,,,,,,2.2,1.0,1.9,8*18
$GPGSV,7,1,22,05,16,109,09,10,17,317,22,12,15,135,12,15,31,042,32,1*61
$GPGSV,7,2,22,18,69,253,32,23,46,343,34,24,67,055,42,25,08,173,22,1*69
$GPGSV,7,3,22,29,07,195,,32,13,263,17,1*63
$GPGSV,7,4,22,40,20,257,,41,46,238,,42,46,122,,43,05,,,1*58
$GPGSV,7,5,22,50,46,122,,53,05,,,54,05,,,1*57
$GPGSV,7,6,22,18,69,253,28,23,46,343,31,24,67,055,34,25,08,173,21,8*68
$GPGSV,7,7,22,32,05,,,8*69
$GLGSV,3,1,09,66,09,062,17,67,34,013,29,68,25,315,28,76,08,034,,1*7D
$GLGSV,3,2,09,77,37,073,16,78,32,148,34,81,17,188,09,82,46,237,09,1*73
$GLGSV,3,3,09,83,37,300,18,1*44
$BDGSV,17,1,65,201,48,120,,202,48,239,,203,69,191,,204,32,111,,1*48
$BDGSV,17,2,65,205,26,262,,206,73,243,24,207,09,187,,208,71,032,38,1*40
$BDGSV,17,3,65,209,58,227,17,210,08,197,,213,66,356,37,216,76,250,28,1*4D
$BDGSV,17,4,65,219,08,293,,220,41,333,33,223,23,053,28,227,05,170,29,1*49
$BDGSV,17,5,65,229,27,277,20,230,30,214,28,232,38,050,35,237,52,113,30,1*4C
$BDGSV,17,6,65,238,73,081,26,239,79,302,28,246,25,183,23,1*47
$BDGSV,17,7,65,201,47,121,,202,45,233,,203,65,190,,204,32,110,,7*4D
$BDGSV,17,8,65,205,24,257,,206,73,243,,207,09,187,,208,71,032,,7*45
$BDGSV,17,9,65,209,58,227,,210,08,197,,213,66,356,,216,76,250,,7*49
$BDGSV,17,10,65,219,08,293,,220,41,333,30,223,23,053,21,227,05,170,23,7*7A
$BDGSV,17,11,65,229,27,277,14,230,30,214,17,232,38,050,24,237,52,113,34,7*70
$BDGSV,17,12,65,238,73,081,24,239,79,302,32,246,25,183,,259,51,125,,7*70
$BDGSV,17,13,65,260,44,242,,261,63,189,,262,31,112,,7*72
$BDGSV,17,14,65,219,08,293,,220,41,333,31,223,23,053,,227,05,170,,8*72
$BDGSV,17,15,65,229,27,277,,230,30,214,,232,38,050,,237,52,113,23,8*78
$BDGSV,17,16,65,238,73,081,24,239,79,302,22,246,25,183,,259,51,125,,8*7A
$BDGSV,17,17,65,260,44,242,,261,63,189,,262,31,112,,8*79
$QZGSV,2,1,06,193,08,059,,194,25,131,33,195,36,167,34,196,67,057,,1*78
$QZGSV,2,2,06,194,25,131,30,195,36,167,36,8*71
$GAGSV,4,1,12,104,26,273,14,110,30,315,,111,06,324,,112,53,297,33,7*79
$GAGSV,4,2,12,119,53,347,34,121,22,118,,126,11,158,,127,10,068,,7*76
$GAGSV,4,3,12,133,54,185,26,7*7F
$GAGSV,4,4,12,112,53,297,27,119,53,347,28,133,54,185,16,1*75
$PIGSV,2,1,05,283,48,242,23,284,34,165,,285,05,,,287,05,,,8*6C
$PIGSV,2,2,05,289,23,281,,8*6F
$GPRMC,091918.00,A,2219.004390,N,11410.126207,E,000.4,206.6,250723,,E,A*17
$GPGGA,091919.00,2219.004144,N,11410.126325,E,1,14,1.1,26.4,M,,M,,*47
$GNGSA,A,3,10,12,15,18,23,24,25,32,206,208,209,213,2.4,1.1,2.1*22
$GPGSA,A,3,10,12,15,18,23,24,25,32,,,,,2.4,1.1,2.1,1*24
$GPGSA,A,3,18,23,24,25,32,,,,,,,,2.4,1.1,2.1,8*2B
$GLGSA,A,3,66,67,68,77,78,81,82,83,,,,,2.4,1.1,2.1,1*3E
$BDGSA,A,3,206,208,209,213,216,220,223,227,229,230,232,237,2.4,1.1,2.1,1*32
$BDGSA,A,3,220,223,227,229,230,232,237,238,239,,,,2.4,1.1,2.1,7*05
$BDGSA,A,3,220,223,229,230,237,238,239,,,,,,2.4,1.1,2.1,8*0E
$BDGSA,A,3,220,230,,,,,,,,,,,2.4,1.1,2.1,9*32
$GAGSA,A,3,104,112,119,133,,,,,,,,,2.4,1.1,2.1,7*32
$GAGSA,A,3,112,119,133,,,,,,,,,,2.4,1.1,2.1,1*01
$GAGSA,A,3,,,,,,,,,,,,,2.4,1.1,2.1,2*38
$QZGSA,A,3,194,195,,,,,,,,,,,2.4,1.1,2.1,1*37
$QZGSA,A,3,194,195,,,,,,,,,,,2.4,1.1,2.1,8*3E
$PIGSA,A,3,283,,,,,,,,,,,,2.4,1.1,2.1,8*14
$GPGSV,7,1,22,05,16,109,,10,17,317,26,12,15,135,12,15,31,042,22,1*6D
$GPGSV,7,2,22,18,69,253,40,23,46,343,40,24,67,055,43,25,08,173,23,1*6F
$GPGSV,7,3,22,29,07,195,,32,13,263,18,1*6C
$GPGSV,7,4,22,40,20,257,,41,46,238,,42,46,122,,43,05,,,1*58
$GPGSV,7,5,22,50,46,122,,53,05,,,54,05,,,1*57
$GPGSV,7,6,22,18,69,253,30,23,46,343,32,24,67,055,34,25,08,173,20,8*63
$GPGSV,7,7,22,32,05,,,8*69
$GLGSV,3,1,09,66,09,062,17,67,34,013,35,68,25,315,23,76,08,034,,1*7B
$GLGSV,3,2,09,77,37,073,16,78,32,148,38,81,17,188,09,82,46,237,09,1*7F
$GLGSV,3,3,09,83,37,300,24,1*4B
$BDGSV,18,1,67,201,48,120,,202,48,239,,203,69,191,,204,32,111,,1*45
$BDGSV,18,2,67,205,26,262,,206,73,243,21,207,09,187,,208,71,032,38,1*48
$BDGSV,18,3,67,209,58,227,18,210,08,197,,213,66,356,24,216,76,250,26,1*43
$BDGSV,18,4,67,219,08,293,,220,41,333,33,223,23,053,28,227,05,170,25,1*48
$BDGSV,18,5,67,229,27,277,19,230,30,214,23,232,38,050,36,237,52,113,24,1*46
$BDGSV,18,6,67,238,73,081,29,239,79,302,27,246,25,183,23,1*4A
$BDGSV,18,7,67,201,47,121,,202,45,233,,203,65,190,,204,32,110,,7*40
$BDGSV,18,8,67,205,24,257,,206,73,243,,207,09,187,,208,71,032,,7*48
$BDGSV,18,9,67,209,58,227,,210,08,197,,213,66,356,,216,76,250,,7*44
$BDGSV,18,10,67,219,08,293,,220,41,333,29,223,23,053,18,227,05,170,24,7*72
$BDGSV,18,11,67,229,27,277,12,230,30,214,18,232,38,050,24,237,52,113,26,7*77
$BDGSV,18,12,67,238,73,081,30,239,79,302,31,246,25,183,,259,51,125,,7*7B
$BDGSV,18,13,67,260,44,242,,261,63,189,,262,31,112,,7*7F
$BDGSV,18,14,67,219,08,293,,220,41,333,29,223,23,053,,227,05,170,,8*76
$BDGSV,18,15,67,229,27,277,,230,30,214,,232,38,050,,237,52,113,24,8*72
$BDGSV,18,16,67,238,73,081,23,239,79,302,26,246,25,183,,259,51,125,,8*74
$BDGSV,18,17,67,260,44,242,,261,63,189,,262,31,112,,8*74
$BDGSV,18,18,67,220,05,,,230,05,,,9*7D
$QZGSV,2,1,06,193,08,059,,194,25,131,31,195,36,167,34,196,67,057,,1*7A
$QZGSV,2,2,06,194,25,131,26,195,36,167,36,8*76
$GAGSV,4,1,12,104,26,273,13,110,30,315,,111,06,324,,112,53,297,36,7*7B
$GAGSV,4,2,12,119,53,347,35,121,22,118,,126,11,158,,127,10,068,,7*77
$GAGSV,4,3,12,133,54,185,31,7*79
$GAGSV,4,4,12,112,53,297,22,119,53,347,30,133,54,185,16,1*79
$PIGSV,2,1,05,283,48,242,22,284,34,165,,285,05,,,287,05,,,8*6D
$PIGSV,2,2,05,289,23,281,,8*6F
$GPRMC,091919.00,A,2219.004144,N,11410.126325,E,000.5,206.6,250723,,E,A*1D
$GPGGA,091920.00,2219.003322,N,11410.127128,E,1,19,0.9,15.3,M,,M,,*45
$GNGSA,A,3,10,12,15,18,23,24,25,32,206,208,209,213,1.6,0.9,1.3*2B
$GPGSA,A,3,10,12,15,18,23,24,25,32,,,,,1.6,0.9,1.3,1*2D
$GPGSA,A,3,18,23,24,25,,,,,,,,,1.6,0.9,1.3,8*23
$GLGSA,A,3,66,67,68,77,78,81,82,83,,,,,1.6,0.9,1.3,1*37
$BDGSA,A,3,206,208,209,213,216,220,223,227,229,230,232,237,1.6,0.9,1.3,1*3B
$BDGSA,A,3,220,223,227,229,230,232,237,238,239,,,,1.6,0.9,1.3,7*0C
$BDGSA,A,3,220,223,227,229,230,232,237,238,239,,,,1.6,0.9,1.3,8*03
$BDGSA,A,3,220,,,,,,,,,,,,1.6,0.9,1.3,9*0A
$GAGSA,A,3,104,112,119,133,,,,,,,,,1.6,0.9,1.3,7*3B
$GAGSA,A,3,112,119,133,,,,,,,,,,1.6,0.9,1.3,1*08
$GAGSA,A,3,,,,,,,,,,,,,1.6,0.9,1.3,2*31
$QZGSA,A,3,194,195,,,,,,,,,,,1.6,0.9,1.3,1*3E
$QZGSA,A,3,194,195,,,,,,,,,,,1.6,0.9,1.3,8*37
$PIGSA,A,3,283,,,,,,,,,,,,1.6,0.9,1.3,8*1D
$GPGSV,6,1,21,05,16,109,,10,17,317,25,12,15,135,12,15,31,042,21,1*6F
$GPGSV,6,2,21,18,69,253,40,23,46,343,40,24,67,055,43,25,08,173,24,1*6A
$GPGSV,6,3,21,29,07,195,,32,13,263,19,1*6F
$GPGSV,6,4,21,40,20,257,,41,46,238,,42,46,122,,43,05,,,1*5A
$GPGSV,6,5,21,50,46,122,,53,05,,,54,05,,,1*55
$GPGSV,6,6,21,18,69,253,29,23,46,343,31,24,67,055,33,25,08,173,19,8*67
$GLGSV,3,1,09,66,09,062,13,67,34,013,36,68,25,315,24,76,08,034,,1*7B
$GLGSV,3,2,09,77,37,073,16,78,32,148,39,81,17,188,10,82,46,237,10,1*7E
$GLGSV,3,3,09,83,37,300,23,1*4C
$BDGSV,18,1,66,201,48,120,,202,48,239,,203,69,191,,204,32,111,,1*44
$BDGSV,18,2,66,205,26,262,,206,73,243,23,207,09,187,,208,71,032,36,1*45
$BDGSV,18,3,66,209,58,227,18,210,08,197,,213,66,356,33,216,76,250,23,1*41
$BDGSV,18,4,66,219,08,293,,220,41,333,35,223,23,053,28,227,05,170,28,1*42
$BDGSV,18,5,66,229,27,277,19,230,30,214,18,232,38,050,36,237,52,113,26,1*4D
$BDGSV,18,6,66,238,73,081,25,239,79,302,17,246,25,183,21,1*46
$BDGSV,18,7,66,201,47,121,,202,45,233,,203,65,190,,204,32,110,,7*41
$BDGSV,18,8,66,205,24,257,,206,73,243,,207,09,187,,208,71,032,,7*49
$BDGSV,18,9,66,209,58,227,,210,08,197,,213,66,356,,216,76,250,,7*45
$BDGSV,18,10,66,219,08,293,,220,41,333,31,223,23,053,16,227,05,170,24,7*74
$BDGSV,18,11,66,229,27,277,12,230,30,214,16,232,38,050,26,237,52,113,25,7*79
$BDGSV,18,12,66,238,73,081,26,239,79,302,30,246,25,183,,259,51,125,,7*7C
$BDGSV,18,13,66,260,44,242,,261,63,189,,262,31,112,,7*7E
$BDGSV,18,14,66,219,08,293,,220,41,333,29,223,23,053,,227,05,170,19,8*7F
$BDGSV,18,15,66,229,27,277,,230,30,214,,232,38,050,,237,52,113,24,8*73
$BDGSV,18,16,66,238,73,081,19,239,79,302,27,246,25,183,,259,51,125,,8*7D
$BDGSV,18,17,66,260,44,242,,261,63,189,,262,31,112,,8*75
$BDGSV,18,18,66,220,05,,,9*48
$QZGSV,2,1,06,193,08,059,,194,25,131,29,195,36,167,36,196,67,057,,1*71
$QZGSV,2,2,06,194,25,131,28,195,36,167,38,8*76
$GAGSV,4,1,12,104,26,273,13,110,30,315,,111,06,324,,112,53,297,36,7*7B
$GAGSV,4,2,12,119,53,347,35,121,22,118,,126,11,158,,127,10,068,,7*77
$GAGSV,4,3,12,133,54,185,32,7*7A
$GAGSV,4,4,12,112,53,297,20,119,53,347,26,133,54,185,16,1*7C
$PIGSV,2,1,05,283,48,242,21,284,34,165,,285,05,,,287,05,,,8*6E
$PIGSV,2,2,05,289,23,281,,8*6F
$GPRMC,091920.00,A,2219.003322,N,11410.127128,E,000.5,206.6,250723,,E,A*1C
$GPGGA,091921.00,2219.002878,N,11410.128085,E,1,19,0.9,8.7,M,,M,,*70
$GNGSA,A,3,10,12,15,18,23,24,25,32,206,208,209,213,1.6,0.9,1.3*2B
$GPGSA,A,3,10,12,15,18,23,24,25,32,,,,,1.6,0.9,1.3,1*2D
$GPGSA,A,3,18,23,24,25,,,,,,,,,1.6,0.9,1.3,8*23
$GLGSA,A,3,66,67,68,77,78,81,82,83,,,,,1.6,0.9,1.3,1*37
$BDGSA,A,3,206,208,209,213,216,220,223,227,229,230,232,237,1.6,0.9,1.3,1*3B
$BDGSA,A,3,220,223,227,229,230,232,237,238,239,,,,1.6,0.9,1.3,7*0C
$BDGSA,A,3,220,223,227,229,230,232,237,238,239,,,,1.6,0.9,1.3,8*03
$BDGSA,A,3,220,232,,,,,,,,,,,1.6,0.9,1.3,9*39
$GAGSA,A,3,104,112,119,133,,,,,,,,,1.6,0.9,1.3,7*3B
$GAGSA,A,3,112,119,133,,,,,,,,,,1.6,0.9,1.3,1*08
$GAGSA,A,3,,,,,,,,,,,,,1.6,0.9,1.3,2*31
$QZGSA,A,3,194,195,,,,,,,,,,,1.6,0.9,1.3,1*3E
$QZGSA,A,3,194,195,,,,,,,,,,,1.6,0.9,1.3,8*37
$PIGSA,A,3,283,,,,,,,,,,,,1.6,0.9,1.3,8*1D
$GPGSV,6,1,21,05,16,109,,10,17,317,25,12,15,135,16,15,31,042,25,1*6F
$GPGSV,6,2,21,18,69,253,40,23,46,343,41,24,67,055,43,25,08,173,24,1*6B
$GPGSV,6,3,21,29,07,195,,32,13,263,18,1*6E
$GPGSV,6,4,21,40,20,257,,41,46,238,,42,46,122,,43,05,,,1*5A
$GPGSV,6,5,21,50,46,122,,53,05,,,54,05,,,1*55
$GPGSV,6,6,21,18,69,253,29,23,46,343,30,24,67,055,33,25,08,173,17,8*68
$GLGSV,3,1,09,66,09,062,12,67,34,014,36,68,25,315,26,76,08,034,,1*7F
$GLGSV,3,2,09,77,37,073,17,78,32,148,39,81,17,188,12,82,46,237,09,1*75
$GLGSV,3,3,09,83,37,300,19,1*45
$BDGSV,18,1,67,201,48,120,,202,48,239,,203,69,191,,204,32,111,,1*45
$BDGSV,18,2,67,205,26,262,,206,73,243,25,207,09,187,,208,71,032,35,1*41
$BDGSV,18,3,67,209,58,227,17,210,08,197,,213,66,356,34,216,76,250,24,1*4F
$BDGSV,18,4,67,219,08,293,,220,41,333,35,223,23,053,27,227,05,170,27,1*43
$BDGSV,18,5,67,229,27,277,19,230,30,214,19,232,38,050,36,237,52,113,28,1*43
$BDGSV,18,6,67,238,73,081,25,239,79,302,19,246,25,183,18,1*43
$BDGSV,18,7,67,201,47,121,,202,45,233,,203,65,190,,204,32,110,,7*40
$BDGSV,18,8,67,205,24,257,,206,73,243,,207,09,187,,208,71,032,,7*48
$BDGSV,18,9,67,209,58,227,,210,08,197,,213,66,356,,216,76,250,,7*44
$BDGSV,18,10,67,219,08,293,,220,41,333,27,223,23,053,15,227,05,170,25,7*70
$BDGSV,18,11,67,229,27,277,13,230,30,214,16,232,38,050,27,237,52,113,26,7*7B
$BDGSV,18,12,67,238,73,081,25,239,79,302,31,246,25,183,,259,51,125,,7*7F
$BDGSV,18,13,67,260,44,242,,261,63,189,,262,31,112,,7*7F
$BDGSV,18,14,67,219,08,293,,220,41,333,29,223,23,053,,227,05,170,19,8*7E
$BDGSV,18,15,67,229,27,277,,230,30,214,,232,38,050,,237,52,113,24,8*72
$BDGSV,18,16,67,238,73,081,20,239,79,302,26,246,25,183,,259,51,125,,8*77
$BDGSV,18,17,67,260,44,242,,261,63,189,,262,31,112,,8*74
$BDGSV,18,18,67,220,05,,,232,05,,,9*7F
$QZGSV,2,1,06,193,08,059,,194,25,131,30,195,36,167,38,196,67,057,,1*77
$QZGSV,2,2,06,194,25,131,27,195,36,167,37,8*76
$GAGSV,4,1,12,104,26,273,15,110,30,315,,111,06,324,,112,53,297,35,7*7E
$GAGSV,4,2,12,119,53,347,34,121,22,118,,126,11,158,,127,10,068,,7*76
$GAGSV,4,3,12,133,54,185,31,7*79
$GAGSV,4,4,12,112,53,297,19,119,53,347,24,133,54,185,17,1*75
$PIGSV,2,1,05,283,48,242,21,284,34,165,,285,05,,,287,05,,,8*6E
$PIGSV,2,2,05,289,23,281,,8*6F
$GPRMC,091921.00,A,2219.002878,N,11410.128085,E,000.7,206.6,250723,,E,A*13
$GPGGA,091922.00,2219.003182,N,11410.130220,E,1,18,0.9,2.1,M,,M,,*77
$GNGSA,A,3,10,12,15,18,23,24,25,32,206,208,209,213,1.6,0.9,1.4*2C
$GPGSA,A,3,10,12,15,18,23,24,25,32,41,50,,,1.6,0.9,1.4,1*2A
$GPGSA,A,3,18,23,24,25,,,,,,,,,1.6,0.9,1.4,8*24
$GLGSA,A,3,66,67,68,77,78,81,82,83,,,,,1.6,0.9,1.4,1*30
$BDGSA,A,3,206,208,209,213,216,220,223,227,229,230,232,237,1.6,0.9,1.4,1*3C
$BDGSA,A,3,220,223,227,229,230,232,237,238,239,246,,,1.6,0.9,1.4,7*3B
$BDGSA,A,3,220,223,227,230,232,237,238,239,246,,,,1.6,0.9,1.4,8*0D
$BDGSA,A,3,227,232,,,,,,,,,,,1.6,0.9,1.4,9*39
$GAGSA,A,3,104,112,119,133,,,,,,,,,1.6,0.9,1.4,7*3C
$GAGSA,A,3,104,112,119,133,,,,,,,,,1.6,0.9,1.4,1*3A
$GAGSA,A,3,112,133,,,,,,,,,,,1.6,0.9,1.4,2*35
$QZGSA,A,3,194,195,,,,,,,,,,,1.6,0.9,1.4,1*39
$QZGSA,A,3,194,195,,,,,,,,,,,1.6,0.9,1.4,8*30
$PIGSA,A,3,283,,,,,,,,,,,,1.6,0.9,1.4,8*1A
$GPGSV,6,1,21,05,16,109,,10,17,317,26,12,15,135,18,15,31,042,29,1*6E
$GPGSV,6,2,21,18,69,253,39,23,46,343,40,24,67,055,41,25,08,173,24,1*66
$GPGSV,6,3,21,29,07,195,,32,13,263,19,1*6F
$GPGSV,6,4,21,40,20,257,,41,46,238,35,42,46,122,,43,05,,,1*5C
$GPGSV,6,5,21,50,46,122,32,53,05,,,54,05,,,1*54
$GPGSV,6,6,21,18,69,253,28,23,46,343,29,24,67,055,34,25,08,173,15,8*64
$GLGSV,3,1,09,66,09,062,09,67,34,014,36,68,25,315,22,76,08,034,,1*71
$GLGSV,3,2,09,77,37,073,19,78,32,148,37,81,17,188,12,82,46,237,09,1*75
$GLGSV,3,3,09,83,37,300,22,1*4D
$BDGSV,18,1,67,201,48,120,,202,48,239,,203,69,191,,204,32,111,,1*45
$BDGSV,18,2,67,205,26,262,,206,73,243,24,207,09,187,,208,71,032,33,1*46
$BDGSV,18,3,67,209,58,227,18,210,08,197,,213,66,356,34,216,76,250,25,1*41
$BDGSV,18,4,67,219,08,293,,220,41,333,35,223,23,053,28,227,05,170,29,1*42
$BDGSV,18,5,67,229,27,277,24,230,30,214,23,232,38,050,36,237,52,113,31,1*4C
$BDGSV,18,6,67,238,73,081,27,239,79,302,20,246,25,183,21,1*41
$BDGSV,18,7,67,201,47,121,,202,45,233,,203,65,190,,204,32,110,,7*40
$BDGSV,18,8,67,205,24,257,,206,73,243,,207,09,187,,208,71,032,,7*48
$BDGSV,18,9,67,209,58,227,,210,08,197,,213,66,356,,216,76,250,,7*44
$BDGSV,18,10,67,219,08,293,,220,41,333,30,223,23,053,15,227,05,170,26,7*75
$BDGSV,18,11,67,229,27,277,12,230,30,214,17,232,38,050,30,237,52,113,32,7*78
$BDGSV,18,12,67,238,73,081,24,239,79,302,30,246,25,183,09,259,51,125,,7*76
$BDGSV,18,13,67,260,44,242,,261,63,189,,262,31,112,,7*7F
$BDGSV,18,14,67,219,08,293,,220,41,333,29,223,23,053,,227,05,170,17,8*70
$BDGSV,18,15,67,229,27,277,,230,30,214,,232,38,050,,237,52,113,22,8*74
$BDGSV,18,16,67,238,73,081,19,239,79,302,27,246,25,183,,259,51,125,,8*7C
$BDGSV,18,17,67,260,44,242,,261,63,189,,262,31,112,,8*74
$BDGSV,18,18,67,227,05,,,232,05,,,9*78
$QZGSV,2,1,06,193,08,059,,194,25,131,31,195,36,167,38,196,67,057,,1*76
$QZGSV,2,2,06,194,25,131,27,195,36,167,37,8*76
$GAGSV,5,1,15,104,26,273,17,110,30,315,,111,06,324,,112,53,297,36,7*79
$GAGSV,5,2,15,119,53,347,34,121,22,118,,126,11,158,,127,10,068,,7*70
$GAGSV,5,3,15,133,54,185,32,7*7C
$GAGSV,5,4,15,104,05,,,112,53,297,18,119,53,347,19,133,54,185,18,1*43
$GAGSV,5,5,15,112,05,,,133,05,,,2*71
$PIGSV,2,1,05,283,48,242,23,284,34,165,,285,05,,,287,05,,,8*6C
$PIGSV,2,2,05,289,23,281,,8*6F
$GPRMC,091922.00,A,2219.003182,N,11410.130220,E,000.8,206.6,250723,,E,A*16
$GPGGA,091923.00,2219.002289,N,11410.128507,E,1,18,0.9,0.1,M,,M,,*76
$GNGSA,A,3,10,12,15,18,23,24,25,32,206,208,209,213,1.9,0.9,1.7*20
$GPGSA,A,3,10,12,15,18,23,24,25,32,41,50,,,1.9,0.9,1.7,1*26
$GPGSA,A,3,18,23,24,25,,,,,,,,,1.9,0.9,1.7,8*28
$GLGSA,A,3,66,67,68,77,78,81,82,83,,,,,1.9,0.9,1.7,1*3C
$BDGSA,A,3,206,208,209,213,216,220,223,227,229,230,232,237,1.9,0.9,1.7,1*30
