$GNGSA,A,1,,,,,,,,,,,,,0.0,0.0,0.0*2E
$GPGSA,A,1,,,,,,,,,,,,,0.0,0.0,0.0,1*2D
$GPGSA,A,1,,,,,,,,,,,,,0.0,0.0,0.0,8*24
$GLGSA,A,1,,,,,,,,,,,,,0.0,0.0,0.0,1*31
$BDGSA,A,1,,,,,,,,,,,,,0.0,0.0,0.0,1*3C
$BDGSA,A,1,,,,,,,,,,,,,0.0,0.0,0.0,7*3A
$BDGSA,A,1,,,,,,,,,,,,,0.0,0.0,0.0,8*35
$BDGSA,A,1,,,,,,,,,,,,,0.0,0.0,0.0,9*34
$GAGSA,A,1,,,,,,,,,,,,,0.0,0.0,0.0,7*3A
$GAGSA,A,1,,,,,,,,,,,,,0.0,0.0,0.0,1*3C
$GAGSA,A,1,,,,,,,,,,,,,0.0,0.0,0.0,2*3F
$QZGSA,A,1,,,,,,,,,,,,,0.0,0.0,0.0,1*31
$QZGSA,A,1,,,,,,,,,,,,,0.0,0.0,0.0,8*38
$PIGSA,A,1,,,,,,,,,,,,,0.0,0.0,0.0,8*2A
$GPGSV,4,1,14,05,23,094,,10,08,307,,12,08,148,,13,13,042,,1*60
$GPGSV,4,2,14,15,41,027,,18,65,300,,23,35,330,,24,73,110,,1*6F
$GPGSV,4,3,14,29,16,206,,32,06,249,,1*66
$GPGSV,4,4,14,40,20,257,,41,46,238,,42,46,122,,50,46,122,,1*6A
$GLGSV,3,1,09,65,16,048,,66,36,351,,67,20,294,,75,13,045,,1*74
$GLGSV,3,2,09,76,33,103,,77,19,155,,81,54,274,,82,20,323,,1*79
$GLGSV,3,3,09,88,35,193,,1*4C
$BDGSV,17,1,65,201,48,120,,202,48,239,,203,65,190,,204,32,110,,1*44
$BDGSV,17,2,65,205,26,262,,206,71,215,,207,10,191,,208,63,023,,1*40
$BDGSV,17,3,65,209,54,212,,210,10,201,,213,59,356,,216,73,216,,1*41
$BDGSV,17,4,65,219,42,328,,220,39,038,,222,08,284,,229,39,220,,1*47
$BDGSV,17,5,65,230,09,171,,235,29,290,,236,20,179,,237,23,061,,1*44
$BDGSV,17,6,65,238,68,059,,239,83,247,,246,43,127,,1*4C
$BDGSV,17,7,65,201,48,121,,202,45,233,,203,60,188,,204,32,110,,7*4E
$BDGSV,17,8,65,205,24,257,,206,71,215,,207,10,191,,208,63,023,,7*48
$BDGSV,17,9,65,209,54,212,,210,10,201,,213,59,356,,216,73,216,,7*4D
$BDGSV,17,10,65,219,42,328,,220,39,038,,222,08,284,,229,39,220,,7*74
$BDGSV,17,11,65,230,09,171,,235,29,290,,236,20,179,,237,23,061,,7*77
$BDGSV,17,12,65,238,68,059,,239,83,247,,246,43,127,,259,51,125,,7*73
$BDGSV,17,13,65,260,44,242,,261,63,189,,262,31,112,,7*72
$BDGSV,17,14,65,219,42,328,,220,39,038,,222,08,284,,229,39,220,,8*7F
$BDGSV,17,15,65,230,09,171,,235,29,290,,236,20,179,,237,23,061,,8*7C
$BDGSV,17,16,65,238,68,059,,239,83,247,,246,43,127,,259,51,125,,8*78
$BDGSV,17,17,65,260,44,242,,261,63,189,,262,31,112,,8*79
$QZGSV,1,1,03,194,21,135,,195,42,164,,196,66,052,,1*72
$GAGSV,3,1,09,104,18,044,,105,38,272,,109,55,356,,110,26,156,,7*72
$GAGSV,3,2,09,111,54,167,,124,10,157,,131,14,109,,134,16,323,,7*73
$GAGSV,3,3,09,136,66,297,,7*72
$PIGSV,1,1,03,282,06,238,,283,48,241,,289,23,277,,8*65
$GPRMC,084850.68,V,2218.892998,N,11410.147718,E,000.0,000.0,240723,,E,N*07
$GPGGA,084851.68,2218.892998,N,11410.147718,E,0,,0.0,0.0,M,,M,,*76
$GNGSA,A,1,,,,,,,,,,,,,0.0,0.0,0.0*2E
$GPGSA,A,1,,,,,,,,,,,,,0.0,0.0,0.0,1*2D
$GPGSA,A,1,,,,,,,,,,,,,0.0,0.0,0.0,8*24
$GLGSA,A,1,,,,,,,,,,,,,0.0,0.0,0.0,1*31
$BDGSA,A,1,,,,,,,,,,,,,0.0,0.0,0.0,1*3C
$BDGSA,A,1,,,,,,,,,,,,,0.0,0.0,0.0,7*3A
$BDGSA,A,1,,,,,,,,,,,,,0.0,0.0,0.0,8*35
$BDGSA,A,1,,,,,,,,,,,,,0.0,0.0,0.0,9*34
$GAGSA,A,1,,,,,,,,,,,,,0.0,0.0,0.0,7*3A
$GAGSA,A,1,,,,,,,,,,,,,0.0,0.0,0.0,1*3C
$GAGSA,A,1,,,,,,,,,,,,,0.0,0.0,0.0,2*3F
$QZGSA,A,1,,,,,,,,,,,,,0.0,0.0,0.0,1*31
$QZGSA,A,1,,,,,,,,,,,,,0.0,0.0,0.0,8*38
$PIGSA,A,1,,,,,,,,,,,,,0.0,0.0,0.0,8*2A
$GPGSV,5,1,15,05,23,094,25,10,08,307,,12,08,148,,13,13,042,,1*67
$GPGSV,5,2,15,15,41,027,32,18,65,300,32,23,35,330,28,24,73,110,,1*65
$GPGSV,5,3,15,29,16,206,,32,06,249,,1*66
$GPGSV,5,4,15,40,20,257,,41,46,238,,42,46,122,,50,46,122,,1*6A
$GPGSV,5,5,15,18,05,,,8*65
$GLGSV,3,1,09,65,16,048,,66,36,351,31,67,20,294,,75,13,045,,1*76
$GLGSV,3,2,09,76,33,103,,77,19,155,,81,54,274,,82,20,323,,1*79
$GLGSV,3,3,09,88,35,193,,1*4C
$BDGSV,17,1,65,201,48,120,,202,48,239,,203,65,190,,204,32,110,,1*44
$BDGSV,17,2,65,205,26,262,,206,71,215,,207,10,191,,208,63,023,,1*40
$BDGSV,17,3,65,209,54,212,,210,10,201,,213,59,356,,216,73,216,,1*41
$BDGSV,17,4,65,219,42,328,,220,39,038,,222,08,284,,229,39,220,,1*47
$BDGSV,17,5,65,230,09,171,,235,29,290,,236,20,179,,237,23,061,,1*44
$BDGSV,17,6,65,238,68,059,,239,83,247,,246,43,127,,1*4C
$BDGSV,17,7,65,201,48,121,,202,45,233,,203,60,188,,204,32,110,,7*4E
$BDGSV,17,8,65,205,24,257,,206,71,215,,207,10,191,,208,63,023,,7*48
$BDGSV,17,9,65,209,54,212,,210,10,201,,213,59,356,,216,73,216,,7*4D
$BDGSV,17,10,65,219,42,328,,220,39,038,,222,08,284,,229,39,220,,7*74
$BDGSV,17,11,65,230,09,171,,235,29,290,,236,20,179,,237,23,061,,7*77
$BDGSV,17,12,65,238,68,059,,239,83,247,,246,43,127,,259,51,125,,7*73
$BDGSV,17,13,65,260,44,242,,261,63,189,,262,31,112,,7*72
$BDGSV,17,14,65,219,42,328,,220,39,038,,222,08,284,,229,39,220,,8*7F
$BDGSV,17,15,65,230,09,171,,235,29,290,,236,20,179,,237,23,061,,8*7C
$BDGSV,17,16,65,238,68,059,,239,83,247,,246,43,127,,259,51,125,,8*78
$BDGSV,17,17,65,260,44,242,,261,63,189,,262,31,112,,8*79
$QZGSV,1,1,04,193,09,056,,194,21,135,,195,42,164,25,196,66,052,,1*73
$GAGSV,3,1,09,104,18,044,,105,38,272,,109,55,356,,110,26,156,,7*72
$GAGSV,3,2,09,111,54,167,,124,10,157,,131,14,109,,134,16,323,,7*73
$GAGSV,3,3,09,136,66,297,,7*72
$PIGSV,1,1,03,282,06,238,,283,48,241,,289,23,277,,8*65
$GPRMC,084851.68,V,2218.892998,N,11410.147718,E,000.0,000.0,240723,,E,N*06
$GPGGA,084852.70,2218.892998,N,11410.147718,E,0,,0.0,0.0,M,,M,,*7C
$GNGSA,A,1,,,,,,,,,,,,,0.0,0.0,0.0*2E
$GPGSA,A,1,,,,,,,,,,,,,0.0,0.0,0.0,1*2D
$GPGSA,A,1,,,,,,,,,,,,,0.0,0.0,0.0,8*24
$GLGSA,A,1,,,,,,,,,,,,,0.0,0.0,0.0,1*31
$BDGSA,A,1,,,,,,,,,,,,,0.0,0.0,0.0,1*3C
$BDGSA,A,1,,,,,,,,,,,,,0.0,0.0,0.0,7*3A
$BDGSA,A,1,,,,,,,,,,,,,0.0,0.0,0.0,8*35
$BDGSA,A,1,,,,,,,,,,,,,0.0,0.0,0.0,9*34
$GAGSA,A,1,,,,,,,,,,,,,0.0,0.0,0.0,7*3A
$GAGSA,A,1,,,,,,,,,,,,,0.0,0.0,0.0,1*3C
$GAGSA,A,1,,,,,,,,,,,,,0.0,0.0,0.0,2*3F
$QZGSA,A,1,,,,,,,,,,,,,0.0,0.0,0.0,1*31
$QZGSA,A,1,,,,,,,,,,,,,0.0,0.0,0.0,8*38
$PIGSA,A,1,,,,,,,,,,,,,0.0,0.0,0.0,8*2A
$GPGSV,5,1,15,05,23,094,21,10,08,307,,12,08,148,,13,13,042,,1*63
$GPGSV,5,2,15,15,41,027,26,18,65,300,37,23,35,330,28,24,73,110,27,1*60
$GPGSV,5,3,15,29,16,206,,32,06,249,,1*66
$GPGSV,5,4,15,40,20,257,,41,46,238,,42,46,122,,50,46,122,,1*6A
$GPGSV,5,5,15,18,65,300,40,8*54
$GLGSV,3,1,09,65,16,048,,66,36,351,30,67,20,294,,75,13,045,,1*77
$GLGSV,3,2,09,76,33,103,23,77,19,155,,81,54,274,23,82,20,323,,1*79
$GLGSV,3,3,09,88,35,193,30,1*4F
$BDGSV,17,1,65,201,48,120,,202,48,239,,203,65,190,,204,32,110,,1*44
$BDGSV,17,2,65,205,26,262,,206,71,215,41,207,10,191,,208,63,023,,1*45
$BDGSV,17,3,65,209,54,212,31,210,10,201,,213,59,356,26,216,73,216,41,1*42
$BDGSV,17,4,65,219,42,328,28,220,39,038,31,222,08,284,,229,39,220,23,1*4E
$BDGSV,17,5,65,230,09,171,25,235,29,290,33,236,20,179,,237,23,061,,1*43
$BDGSV,17,6,65,238,68,059,28,239,83,247,25,246,43,127,32,1*40
$BDGSV,17,7,65,201,48,121,,202,45,233,,203,60,188,,204,32,110,,7*4E
$BDGSV,17,8,65,205,24,257,,206,71,215,,207,10,191,,208,63,023,,7*48
$BDGSV,17,9,65,209,54,212,,210,10,201,,213,59,356,,216,73,216,,7*4D
$BDGSV,17,10,65,219,42,328,23,220,39,038,,222,08,284,,229,39,220,,7*75
$BDGSV,17,11,65,230,09,171,27,235,29,290,27,236,20,179,,237,23,061,,7*77
$BDGSV,17,12,65,238,68,059,,239,83,247,,246,43,127,,259,51,125,,7*73
$BDGSV,17,13,65,260,44,242,,261,63,189,,262,31,112,,7*72
$BDGSV,17,14,65,219,42,328,,220,39,038,28,222,08,284,,229,39,220,,8*75
$BDGSV,17,15,65,230,09,171,30,235,29,290,,236,20,179,,237,23,061,,8*7F
$BDGSV,17,16,65,238,68,059,25,239,83,247,,246,43,127,,259,51,125,,8*7F
$BDGSV,17,17,65,260,44,242,,261,63,189,,262,31,112,,8*79
$QZGSV,2,1,05,193,09,056,,194,21,135,,195,42,164,25,196,66,052,,1*71
$QZGSV,2,2,05,195,42,164,25,8*7B
$GAGSV,3,1,09,104,18,044,,105,38,272,,109,55,356,,110,26,156,,7*72
$GAGSV,3,2,09,111,54,167,,124,10,157,,131,14,109,,134,16,323,,7*73
$GAGSV,3,3,09,136,66,297,,7*72
$PIGSV,1,1,03,282,06,238,,283,48,241,,289,23,277,,8*65
$GPRMC,084852.70,V,2218.892998,N,11410.147718,E,000.0,000.0,240723,,E,N*0C
$GPGGA,084852.55,2218.931204,N,11410.134835,E,1,14,1.1,134.6,M,,M,,*7D
$GNGSA,A,3,5,15,18,23,24,206,209,213,216,219,220,229,2.5,1.1,2.3*2C
$GPGSA,A,3,5,15,18,23,24,,,,,,,,2.5,1.1,2.3,1*16
$GPGSA,A,3,18,,,,,,,,,,,,2.5,1.1,2.3,8*29
$GLGSA,A,3,66,76,81,88,,,,,,,,,2.5,1.1,2.3,1*3D
$BDGSA,A,3,206,209,213,216,219,220,229,230,235,238,239,246,2.5,1.1,2.3,1*35
$BDGSA,A,3,219,230,235,,,,,,,,,,2.5,1.1,2.3,7*01
$BDGSA,A,3,220,230,238,,,,,,,,,,2.5,1.1,2.3,8*09
$BDGSA,A,3,,,,,,,,,,,,,2.5,1.1,2.3,9*30
$GAGSA,A,3,,,,,,,,,,,,,2.5,1.1,2.3,7*3E
$GAGSA,A,3,,,,,,,,,,,,,2.5,1.1,2.3,1*38
$GAGSA,A,3,,,,,,,,,,,,,2.5,1.1,2.3,2*3B
$QZGSA,A,3,195,,,,,,,,,,,,2.5,1.1,2.3,1*08
$QZGSA,A,3,195,,,,,,,,,,,,2.5,1.1,2.3,8*01
$PIGSA,A,3,,,,,,,,,,,,,2.5,1.1,2.3,8*2E
$GPGSV,5,1,15,05,23,094,21,10,08,307,,12,08,148,,13,13,042,,1*63
$GPGSV,5,2,15,15,41,027,25,18,65,300,37,23,35,330,27,24,73,110,27,1*6C
$GPGSV,5,3,15,29,16,206,,32,06,249,,1*66
$GPGSV,5,4,15,40,20,257,,41,46,238,,42,46,122,,50,46,122,,1*6A
$GPGSV,5,5,15,18,65,300,40,8*54
$GLGSV,3,1,09,65,16,048,,66,36,351,30,67,20,294,,75,13,045,,1*77
$GLGSV,3,2,09,76,33,103,19,77,19,155,,81,54,274,23,82,20,323,,1*70
$GLGSV,3,3,09,88,35,193,27,1*49
$BDGSV,17,1,65,201,48,120,,202,48,239,,203,65,190,,204,32,110,,1*44
$BDGSV,17,2,65,205,26,262,,206,71,215,41,207,10,191,,208,63,023,,1*45
$BDGSV,17,3,65,209,54,212,31,210,10,201,,213,59,356,26,216,73,216,41,1*42
$BDGSV,17,4,65,219,42,328,28,220,39,038,31,222,08,284,,229,39,220,23,1*4E
$BDGSV,17,5,65,230,09,171,25,235,29,290,33,236,20,179,,237,23,061,,1*43
$BDGSV,17,6,65,238,68,059,28,239,83,247,25,246,43,127,32,1*40
$BDGSV,17,7,65,201,48,121,,202,45,233,,203,60,188,,204,32,110,,7*4E
$BDGSV,17,8,65,205,24,257,,206,71,215,,207,10,191,,208,63,023,,7*48
$BDGSV,17,9,65,209,54,212,,210,10,201,,213,59,356,,216,73,216,,7*4D
$BDGSV,17,10,65,219,42,328,23,220,39,038,,222,08,284,,229,39,220,,7*75
$BDGSV,17,11,65,230,09,171,27,235,29,290,27,236,20,179,,237,23,061,,7*77
$BDGSV,17,12,65,238,68,059,,239,83,247,,246,43,127,,259,51,125,,7*73
$BDGSV,17,13,65,260,44,242,,261,63,189,,262,31,112,,7*72
$BDGSV,17,14,65,219,42,328,,220,39,038,28,222,08,284,,229,39,220,,8*75
$BDGSV,17,15,65,230,09,171,30,235,29,290,,236,20,179,,237,23,061,,8*7F
$BDGSV,17,16,65,238,68,059,25,239,83,247,,246,43,127,,259,51,125,,8*7F
$BDGSV,17,17,65,260,44,242,,261,63,189,,262,31,112,,8*79
$QZGSV,2,1,05,193,09,056,,194,21,135,,195,42,164,25,196,66,052,,1*71
$QZGSV,2,2,05,195,42,164,25,8*7B
$GAGSV,3,1,09,104,18,044,,105,38,272,,109,55,356,,110,26,156,,7*72
$GAGSV,3,2,09,111,54,167,,124,10,157,,131,14,109,,134,16,323,,7*73
$GAGSV,3,3,09,136,66,297,,7*72
$PIGSV,1,1,03,282,06,238,,283,48,241,,289,23,277,,8*65
$GPRMC,084852.55,A,2218.931204,N,11410.134835,E,016.2,005.8,240723,,E,A*19
$GPGGA,084853.55,2218.930772,N,11410.133832,E,1,15,1.1,109.1,M,,M,,*71
$GNGSA,A,3,5,15,18,23,24,206,209,213,216,219,220,229,2.4,1.1,2.2*2C
$GPGSA,A,3,5,15,18,23,24,,,,,,,,2.4,1.1,2.2,1*16
$GPGSA,A,3,18,,,,,,,,,,,,2.4,1.1,2.2,8*29
$GLGSA,A,3,66,76,81,88,,,,,,,,,2.4,1.1,2.2,1*3D
$BDGSA,A,3,206,209,213,216,219,220,229,230,235,238,239,246,2.4,1.1,2.2,1*35
$BDGSA,A,3,219,220,230,235,238,,,,,,,,2.4,1.1,2.2,7*08
$BDGSA,A,3,220,230,236,238,239,,,,,,,,2.4,1.1,2.2,8*06
$BDGSA,A,3,,,,,,,,,,,,,2.4,1.1,2.2,9*30
$GAGSA,A,3,,,,,,,,,,,,,2.4,1.1,2.2,7*3E
$GAGSA,A,3,,,,,,,,,,,,,2.4,1.1,2.2,1*38
$GAGSA,A,3,,,,,,,,,,,,,2.4,1.1,2.2,2*3B
$QZGSA,A,3,195,,,,,,,,,,,,2.4,1.1,2.2,1*08
$QZGSA,A,3,195,,,,,,,,,,,,2.4,1.1,2.2,8*01
$PIGSA,A,3,,,,,,,,,,,,,2.4,1.1,2.2,8*2E
$GPGSV,6,1,18,05,23,094,16,10,08,307,,12,08,148,,13,13,042,,1*69
$GPGSV,6,2,18,15,41,027,22,18,65,300,33,23,35,330,25,24,73,110,23,1*67
$GPGSV,6,3,18,29,16,206,,32,06,249,,1*68
$GPGSV,6,4,18,40,20,257,,41,46,238,,42,46,122,,43,05,,,1*50
$GPGSV,6,5,18,50,46,122,,53,05,,,54,05,,,1*5F
$GPGSV,6,6,18,18,65,300,40,8*59
$GLGSV,3,1,09,65,16,048,,66,36,351,27,67,20,294,,75,13,045,,1*71
$GLGSV,3,2,09,76,33,103,19,77,19,155,,81,54,274,23,82,20,323,,1*70
$GLGSV,3,3,09,88,35,193,24,1*4A
$BDGSV,17,1,65,201,48,120,,202,48,239,,203,65,190,,204,32,110,,1*44
$BDGSV,17,2,65,205,26,262,,206,71,215,16,207,10,191,,208,63,023,,1*47
$BDGSV,17,3,65,209,54,212,28,210,10,201,,213,59,356,26,216,73,216,20,1*4D
$BDGSV,17,4,65,219,42,328,21,220,39,038,29,222,08,284,,229,39,220,22,1*4F
$BDGSV,17,5,65,230,09,171,24,235,29,289,28,236,20,179,,237,23,061,,1*40
$BDGSV,17,6,65,238,68,059,26,239,83,247,22,246,43,127,28,1*42
$BDGSV,17,7,65,201,48,121,,202,45,233,,203,60,188,,204,32,110,,7*4E
$BDGSV,17,8,65,205,24,257,,206,71,215,,207,10,191,,208,63,023,,7*48
$BDGSV,17,9,65,209,54,212,,210,10,201,,213,59,356,,216,73,216,,7*4D
$BDGSV,17,10,65,219,42,328,22,220,39,038,21,222,08,284,,229,39,220,,7*77
$BDGSV,17,11,65,230,09,171,22,235,29,289,24,236,20,179,,237,23,061,,7*79
$BDGSV,17,12,65,238,68,059,20,239,83,247,,246,43,127,,259,51,125,,7*71
$BDGSV,17,13,65,260,44,242,,261,63,189,,262,31,112,,7*72
$BDGSV,17,14,65,219,42,328,,220,39,038,25,222,08,284,,229,39,220,,8*78
$BDGSV,17,15,65,230,09,171,30,235,29,289,,236,20,179,21,237,23,061,,8*74
$BDGSV,17,16,65,238,68,059,23,239,83,247,21,246,43,127,,259,51,125,,8*7A
$BDGSV,17,17,65,260,44,242,,261,63,189,,262,31,112,,8*79
$QZGSV,2,1,05,193,09,056,,194,21,135,,195,42,164,20,196,66,052,,1*74
$QZGSV,2,2,05,195,42,164,25,8*7B
$GAGSV,3,1,09,104,18,044,,105,38,272,,109,55,356,,110,26,156,,7*72
$GAGSV,3,2,09,111,54,167,,124,10,157,,131,14,109,,134,16,323,,7*73
$GAGSV,3,3,09,136,66,297,,7*72
$PIGSV,2,1,06,282,06,238,,283,48,241,,284,32,167,,285,05,,,8*56
$PIGSV,2,2,06,287,05,,,289,23,277,,8*5D
$GPRMC,084853.55,A,2218.930772,N,11410.133832,E,001.0,193.1,240723,,E,A*1E
$GPGGA,084854.56,2218.928090,N,11410.129074,E,1,13,1.1,114.4,M,,M,,*79
$GNGSA,A,3,5,15,18,23,24,206,209,213,216,219,220,229,2.7,1.1,2.5*28
$GPGSA,A,3,5,15,18,23,24,,,,,,,,2.7,1.1,2.5,1*12
$GPGSA,A,3,18,,,,,,,,,,,,2.7,1.1,2.5,8*2D
$GLGSA,A,3,66,76,81,82,88,,,,,,,,2.7,1.1,2.5,1*33
$BDGSA,A,3,206,209,213,216,219,220,229,230,235,236,238,239,2.7,1.1,2.5,1*36
$BDGSA,A,3,219,220,230,235,238,,,,,,,,2.7,1.1,2.5,7*0C
$BDGSA,A,3,220,230,236,238,239,,,,,,,,2.7,1.1,2.5,8*02
$BDGSA,A,3,,,,,,,,,,,,,2.7,1.1,2.5,9*34
$GAGSA,A,3,,,,,,,,,,,,,2.7,1.1,2.5,7*3A
$GAGSA,A,3,,,,,,,,,,,,,2.7,1.1,2.5,1*3C
$GAGSA,A,3,,,,,,,,,,,,,2.7,1.1,2.5,2*3F
$QZGSA,A,3,195,,,,,,,,,,,,2.7,1.1,2.5,1*0C
$QZGSA,A,3,195,,,,,,,,,,,,2.7,1.1,2.5,8*05
$PIGSA,A,3,283,,,,,,,,,,,,2.7,1.1,2.5,8*13
$GPGSV,6,1,18,05,23,094,19,10,08,307,,12,08,148,,13,13,042,,1*66
$GPGSV,6,2,18,15,41,027,23,18,65,300,28,23,35,330,26,24,73,110,19,1*66
$GPGSV,6,3,18,29,16,206,,32,06,249,,1*68
$GPGSV,6,4,18,40,20,257,,41,46,238,,42,46,122,,43,05,,,1*50
$GPGSV,6,5,18,50,46,122,,53,05,,,54,05,,,1*5F
$GPGSV,6,6,18,18,65,300,39,8*57
$GLGSV,3,1,09,65,16,048,,66,36,351,26,67,20,294,,75,13,045,,1*70
$GLGSV,3,2,09,76,33,103,18,77,19,155,,81,54,274,27,82,20,323,19,1*7D
$GLGSV,3,3,09,88,35,193,27,1*49
$BDGSV,17,1,65,201,48,120,,202,48,239,,203,65,190,,204,32,110,,1*44
$BDGSV,17,2,65,205,26,262,,206,71,215,09,207,10,191,,208,63,023,,1*49
$BDGSV,17,3,65,209,54,212,28,210,10,201,,213,59,356,26,216,73,216,09,1*46
$BDGSV,17,4,65,219,42,328,21,220,39,038,27,222,08,284,,229,39,220,23,1*40
$BDGSV,17,5,65,230,09,171,23,235,29,289,25,236,20,179,20,237,23,061,,1*48
$BDGSV,17,6,65,238,68,059,30,239,83,247,15,246,43,127,27,1*4E
$BDGSV,17,7,65,201,48,121,,202,45,233,,203,60,188,,204,32,110,,7*4E
$BDGSV,17,8,65,205,24,257,,206,71,215,,207,10,191,,208,63,023,,7*48
$BDGSV,17,9,65,209,54,212,,210,10,201,,213,59,356,,216,73,216,,7*4D
$BDGSV,17,10,65,219,42,328,22,220,39,038,25,222,08,284,,229,39,220,,7*73
$BDGSV,17,11,65,230,09,171,23,235,29,289,26,236,20,179,,237,23,061,,7*7A
$BDGSV,17,12,65,238,68,059,20,239,83,247,,246,43,127,,259,51,125,,7*71
$BDGSV,17,13,65,260,44,242,,261,63,189,,262,31,112,,7*72
$BDGSV,17,14,65,219,42,328,,220,39,038,26,222,08,284,,229,39,220,,8*7B
$BDGSV,17,15,65,230,09,171,31,235,29,289,,236,20,179,23,237,23,061,,8*77
$BDGSV,17,16,65,238,68,059,24,239,83,247,23,246,43,127,,259,51,125,,8*7F
$BDGSV,17,17,65,260,44,242,,261,63,189,,262,31,112,,8*79
$QZGSV,2,1,05,193,09,056,,194,21,135,,195,42,164,19,196,66,052,,1*7E
$QZGSV,2,2,05,195,42,164,26,8*78
$GAGSV,3,1,09,104,18,044,,105,38,272,,109,55,356,,110,26,156,,7*72
$GAGSV,3,2,09,111,54,167,,124,10,157,,131,14,109,,134,16,323,,7*73
$GAGSV,3,3,09,136,66,297,,7*72
$PIGSV,2,1,06,282,06,238,,283,48,241,32,284,32,167,,285,05,,,8*57
$PIGSV,2,2,06,287,05,,,289,23,277,,8*5D
$GPRMC,084854.56,A,2218.928090,N,11410.129074,E,001.0,170.5,240723,,E,A*10
$GPGGA,084856.00,2218.933576,N,11410.132268,E,1,20,0.8,92.6,M,,M,,*4F
$GNGSA,A,3,5,15,18,23,24,203,206,209,213,216,219,220,1.8,0.8,1.7*25
$GPGSA,A,3,5,15,18,23,24,,,,,,,,1.8,0.8,1.7,1*17
$GPGSA,A,3,18,23,,,,,,,,,,,1.8,0.8,1.7,8*29
$GLGSA,A,3,66,76,81,82,88,,,,,,,,1.8,0.8,1.7,1*36
$BDGSA,A,3,203,206,209,213,216,219,220,229,230,235,236,237,1.8,0.8,1.7,1*35
$BDGSA,A,3,219,220,230,235,238,,,,,,,,1.8,0.8,1.7,7*09
$BDGSA,A,3,220,230,236,238,239,,,,,,,,1.8,0.8,1.7,8*07
$BDGSA,A,3,,,,,,,,,,,,,1.8,0.8,1.7,9*31
$GAGSA,A,3,136,,,,,,,,,,,,1.8,0.8,1.7,7*0B
$GAGSA,A,3,136,,,,,,,,,,,,1.8,0.8,1.7,1*0D
$GAGSA,A,3,136,,,,,,,,,,,,1.8,0.8,1.7,2*0E
$QZGSA,A,3,194,195,,,,,,,,,,,1.8,0.8,1.7,1*35
$QZGSA,A,3,195,,,,,,,,,,,,1.8,0.8,1.7,8*00
$PIGSA,A,3,283,,,,,,,,,,,,1.8,0.8,1.7,8*16
$GPGSV,6,1,19,05,23,094,23,10,08,307,,12,08,148,,13,13,042,,1*6E
$GPGSV,6,2,19,15,41,027,18,18,65,300,30,23,35,330,25,24,73,110,20,1*6F
$GPGSV,6,3,19,29,16,206,,32,06,249,,1*69
$GPGSV,6,4,19,40,20,257,,41,46,238,,42,46,122,,43,05,,,1*51
$GPGSV,6,5,19,50,46,122,,53,05,,,54,05,,,1*5E
$GPGSV,6,6,19,18,65,300,38,23,35,330,19,8*68
$GLGSV,3,1,09,65,16,048,,66,36,351,22,67,20,294,,75,13,045,,1*74
$GLGSV,3,2,09,76,33,103,18,77,19,155,,81,54,274,25,82,20,323,21,1*74
$GLGSV,3,3,09,88,35,193,21,1*4F
$BDGSV,17,1,65,201,48,120,,202,48,239,,203,65,190,38,204,32,110,,1*4F
$BDGSV,17,2,65,205,26,262,,206,71,215,09,207,10,191,,208,63,023,,1*49
$BDGSV,17,3,65,209,54,212,27,210,10,201,,213,59,356,26,216,73,216,09,1*49
$BDGSV,17,4,65,219,42,328,20,220,39,038,24,222,08,284,,229,39,220,23,1*42
$BDGSV,17,5,65,230,09,171,29,235,29,289,28,236,20,179,10,237,23,061,18,1*45
$BDGSV,17,6,65,238,68,059,28,239,83,247,27,246,43,127,25,1*44
$BDGSV,17,7,65,201,48,121,,202,45,233,,203,60,188,,204,32,110,,7*4E
$BDGSV,17,8,65,205,24,257,,206,71,215,,207,10,191,,208,63,023,,7*48
$BDGSV,17,9,65,209,54,212,,210,10,201,,213,59,356,,216,73,216,,7*4D
$BDGSV,17,10,65,219,42,328,19,220,39,038,27,222,08,284,,229,39,220,,7*79
$BDGSV,17,11,65,230,09,171,31,235,29,289,29,236,20,179,,237,23,061,,7*76
$BDGSV,17,12,65,238,68,059,21,239,83,247,,246,43,127,,259,51,125,,7*70
$BDGSV,17,13,65,260,44,242,,261,63,189,,262,31,112,,7*72
$BDGSV,17,14,65,219,42,328,,220,39,038,23,222,08,284,,229,39,220,,8*7E
$BDGSV,17,15,65,230,09,171,35,235,29,289,,236,20,179,25,237,23,061,,8*75
$BDGSV,17,16,65,238,68,059,23,239,83,247,21,246,43,127,,259,51,125,,8*7A
$BDGSV,17,17,65,260,44,242,,261,63,189,,262,31,112,,8*79
$QZGSV,2,1,05,193,09,056,,194,21,135,18,195,42,164,20,196,66,052,,1*7D
$QZGSV,2,2,05,195,42,164,25,8*7B
$GAGSV,5,1,11,104,18,045,,105,38,272,,109,55,356,,110,26,156,,7*7C
$GAGSV,5,2,11,111,54,167,,124,10,157,,131,14,109,,134,16,323,,7*7C
$GAGSV,5,3,11,136,66,297,25,7*7A
$GAGSV,5,4,11,136,05,,,1*45
$GAGSV,5,5,11,136,05,,,2*47
$PIGSV,2,1,06,282,06,238,,283,48,241,30,284,32,167,,285,05,,,8*55
$PIGSV,2,2,06,287,05,,,289,23,277,,8*5D
$GPRMC,084856.00,A,2218.933576,N,11410.132268,E,000.2,250.1,240723,,E,A*15
$GPGGA,084857.00,2218.927814,N,11410.134475,E,1,21,0.8,77.0,M,,M,,*42
$GNGSA,A,3,5,15,18,23,24,203,206,208,209,213,216,219,1.7,0.8,1.5*22
$GPGSA,A,3,5,15,18,23,24,,,,,,,,1.7,0.8,1.5,1*1A
$GPGSA,A,3,18,23,,,,,,,,,,,1.7,0.8,1.5,8*24
$GLGSA,A,3,66,67,76,81,82,88,,,,,,,1.7,0.8,1.5,1*3A
$BDGSA,A,3,203,206,208,209,213,216,219,220,229,230,235,236,1.7,0.8,1.5,1*34
$BDGSA,A,3,219,220,230,235,238,239,,,,,,,1.7,0.8,1.5,7*3C
$BDGSA,A,3,220,230,236,238,239,246,,,,,,,1.7,0.8,1.5,8*3A
$BDGSA,A,3,,,,,,,,,,,,,1.7,0.8,1.5,9*3C
$GAGSA,A,3,136,,,,,,,,,,,,1.7,0.8,1.5,7*06
$GAGSA,A,3,136,,,,,,,,,,,,1.7,0.8,1.5,1*00
$GAGSA,A,3,136,,,,,,,,,,,,1.7,0.8,1.5,2*03
$QZGSA,A,3,194,195,,,,,,,,,,,1.7,0.8,1.5,1*38
$QZGSA,A,3,195,,,,,,,,,,,,1.7,0.8,1.5,8*0D
$PIGSA,A,3,283,,,,,,,,,,,,1.7,0.8,1.5,8*1B
$GPGSV,6,1,19,05,23,094,21,10,08,307,,12,08,148,,13,13,042,,1*6C
$GPGSV,6,2,19,15,41,027,17,18,65,300,30,23,35,330,26,24,73,110,20,1*63
$GPGSV,6,3,19,29,16,206,,32,06,249,,1*69
$GPGSV,6,4,19,40,20,257,,41,46,238,,42,46,122,,43,05,,,1*51
$GPGSV,6,5,19,50,46,122,,53,05,,,54,05,,,1*5E
$GPGSV,6,6,19,18,65,300,39,23,35,330,18,8*68
$GLGSV,3,1,09,65,16,048,,66,36,352,18,67,20,294,17,75,13,045,,1*78
$GLGSV,3,2,09,76,33,103,18,77,19,155,,81,54,274,24,82,20,323,22,1*76
$GLGSV,3,3,09,88,35,193,20,1*4E
$BDGSV,17,1,65,201,48,120,,202,48,239,,203,65,190,40,204,32,110,,1*40
$BDGSV,17,2,65,205,26,262,,206,71,215,09,207,10,191,,208,63,023,18,1*40
$BDGSV,17,3,65,209,54,212,28,210,10,201,,213,59,356,25,216,73,216,09,1*45
$BDGSV,17,4,65,219,42,328,20,220,39,038,28,222,08,284,,229,39,220,21,1*4C
$BDGSV,17,5,65,230,09,171,27,235,29,289,29,236,20,179,13,237,23,061,19,1*48
$BDGSV,17,6,65,238,68,059,28,239,83,247,26,246,43,127,21,1*41
$BDGSV,17,7,65,201,48,121,,202,45,233,,203,60,188,,204,32,110,,7*4E
$BDGSV,17,8,65,205,24,257,,206,71,215,,207,10,191,,208,63,023,,7*48
$BDGSV,17,9,65,209,54,212,,210,10,201,,213,59,356,,216,73,216,,7*4D
$BDGSV,17,10,65,219,42,328,17,220,39,038,29,222,08,284,,229,39,220,,7*79
$BDGSV,17,11,65,230,09,171,30,235,29,289,28,236,20,179,,237,23,061,,7*76
$BDGSV,17,12,65,238,68,059,18,239,83,247,25,246,43,127,,259,51,125,,7*7D
$BDGSV,17,13,65,260,44,242,,261,63,189,,262,31,112,,7*72
$BDGSV,17,14,65,219,42,328,,220,39,038,26,222,08,285,,229,39,220,,8*7A
$BDGSV,17,15,65,230,09,171,36,235,29,289,,236,20,179,25,237,23,061,,8*76
$BDGSV,17,16,65,238,68,059,21,239,83,247,28,246,43,127,18,259,51,125,,8*78
$BDGSV,17,17,65,260,44,242,,261,63,189,,262,31,112,,8*79
$QZGSV,2,1,05,193,09,056,,194,21,135,09,195,42,164,26,196,66,052,,1*7B
$QZGSV,2,2,05,195,42,164,22,8*7C
$GAGSV,5,1,11,104,18,045,,105,38,272,,109,55,356,,110,26,156,,7*7C
$GAGSV,5,2,11,111,53,167,,124,10,157,,131,14,109,,134,16,323,,7*7B
$GAGSV,5,3,11,136,66,297,25,7*7A
$GAGSV,5,4,11,136,66,297,33,1*7C
$GAGSV,5,5,11,136,05,,,2*47
$PIGSV,2,1,06,282,06,238,,283,48,241,33,284,32,167,,285,05,,,8*56
$PIGSV,2,2,06,287,05,,,289,23,277,,8*5D
$GPRMC,084857.00,A,2218.927814,N,11410.134475,E,000.2,174.6,240723,,E,A*16
$GPGGA,084858.00,2218.930953,N,11410.124587,E,1,16,0.8,55.4,M,,M,,*44
$GNGSA,A,3,5,15,18,23,24,29,203,206,208,209,213,216,1.6,0.8,1.4*13
$GPGSA,A,3,5,15,18,23,24,29,,,,,,,1.6,0.8,1.4,1*11
$GPGSA,A,3,18,23,,,,,,,,,,,1.6,0.8,1.4,8*24
$GLGSA,A,3,66,67,76,81,82,88,,,,,,,1.6,0.8,1.4,1*3A
$BDGSA,A,3,203,206,208,209,213,216,219,220,229,230,235,236,1.6,0.8,1.4,1*34
$BDGSA,A,3,219,220,230,235,238,239,246,,,,,,1.6,0.8,1.4,7*0C
$BDGSA,A,3,220,230,236,238,239,246,,,,,,,1.6,0.8,1.4,8*3A
$BDGSA,A,3,,,,,,,,,,,,,1.6,0.8,1.4,9*3C
$GAGSA,A,3,136,,,,,,,,,,,,1.6,0.8,1.4,7*06
$GAGSA,A,3,136,,,,,,,,,,,,1.6,0.8,1.4,1*00
$GAGSA,A,3,,,,,,,,,,,,,1.6,0.8,1.4,2*37
$QZGSA,A,3,194,195,,,,,,,,,,,1.6,0.8,1.4,1*38
$QZGSA,A,3,195,,,,,,,,,,,,1.6,0.8,1.4,8*0D
$PIGSA,A,3,283,,,,,,,,,,,,1.6,0.8,1.4,8*1B
$GPGSV,6,1,19,05,23,094,21,10,08,307,,12,08,148,,13,13,042,,1*6C
$GPGSV,6,2,19,15,41,027,16,18,65,300,33,23,35,330,26,24,73,110,20,1*61
$GPGSV,6,3,19,29,16,206,17,32,06,249,,1*6F
$GPGSV,6,4,19,40,20,257,,41,46,238,,42,46,122,,43,05,,,1*51
$GPGSV,6,5,19,50,46,122,,53,05,,,54,05,,,1*5E
$GPGSV,6,6,19,18,65,300,40,23,35,330,19,8*67
$GLGSV,3,1,09,65,16,048,,66,36,352,18,67,20,294,17,75,13,045,,1*78
$GLGSV,3,2,09,76,33,103,18,77,19,155,,81,54,274,25,82,20,323,24,1*71
$GLGSV,3,3,09,88,35,193,26,1*48
$BDGSV,17,1,65,201,48,120,,202,48,239,,203,65,190,40,204,32,110,,1*40
$BDGSV,17,2,65,205,26,262,,206,71,215,09,207,10,191,,208,63,023,13,1*4B
$BDGSV,17,3,65,209,54,212,27,210,10,201,,213,59,356,26,216,73,216,09,1*49
$BDGSV,17,4,65,219,42,328,22,220,39,038,30,222,08,284,,229,39,220,23,1*45
$BDGSV,17,5,65,230,09,171,29,235,29,289,29,236,20,179,14,237,23,061,21,1*4A
$BDGSV,17,6,65,238,68,059,27,239,83,247,27,246,43,127,09,1*45
$BDGSV,17,7,65,201,48,121,,202,45,233,,203,60,188,,204,32,110,,7*4E
$BDGSV,17,8,65,205,24,257,,206,71,215,,207,10,191,,208,63,023,,7*48
$BDGSV,17,9,65,209,54,212,,210,10,201,,213,59,356,,216,73,216,,7*4D
$BDGSV,17,10,65,219,42,328,16,220,39,038,31,222,08,284,,229,39,220,,7*71
$BDGSV,17,11,65,230,09,171,27,235,29,289,26,236,20,179,,237,23,061,,7*7E
$BDGSV,17,12,65,238,68,059,19,239,83,247,28,246,43,127,23,259,51,125,,7*70
$BDGSV,17,13,65,260,44,242,,261,63,189,,262,31,112,,7*72
$BDGSV,17,14,65,219,42,328,,220,39,038,29,222,08,285,,229,39,220,,8*75
$BDGSV,17,15,65,230,09,171,35,235,29,289,,236,20,179,25,237,23,061,,8*75
$BDGSV,17,16,65,238,68,059,17,239,83,247,30,246,43,127,21,259,51,125,,8*7E
$BDGSV,17,17,65,260,44,242,,261,63,189,,262,31,112,,8*79
$QZGSV,2,1,05,193,09,056,,194,21,135,13,195,42,164,26,196,66,052,,1*70
$QZGSV,2,2,05,195,42,164,25,8*7B
$GAGSV,4,1,10,104,18,045,,105,38,272,,109,55,356,,110,26,156,,7*7C
$GAGSV,4,2,10,111,53,167,,124,10,157,,131,14,109,,134,16,323,,7*7B
$GAGSV,4,3,10,136,66,297,34,7*7A
$GAGSV,4,4,10,136,66,297,38,1*77
$PIGSV,2,1,06,282,06,238,,283,48,241,32,284,32,167,,285,05,,,8*57
$PIGSV,2,2,06,287,05,,,289,23,277,,8*5D
$GPRMC,084858.00,A,2218.930953,N,11410.124587,E,000.3,296.1,240723,,E,A*19
$GPGGA,084859.00,2218.931103,N,11410.121368,E,1,19,0.7,52.4,M,,M,,*4C
$GNGSA,A,3,5,15,18,23,24,29,203,206,208,209,213,216,1.4,0.7,1.2*18
$GPGSA,A,3,5,15,18,23,24,29,,,,,,,1.4,0.7,1.2,1*1A
$GPGSA,A,3,18,23,,,,,,,,,,,1.4,0.7,1.2,8*2F
$GLGSA,A,3,66,67,76,81,82,88,,,,,,,1.4,0.7,1.2,1*31
$BDGSA,A,3,203,206,208,209,213,216,219,220,229,230,235,236,1.4,0.7,1.2,1*3F
$BDGSA,A,3,219,220,230,235,238,239,246,,,,,,1.4,0.7,1.2,7*07
$BDGSA,A,3,220,230,236,238,239,246,,,,,,,1.4,0.7,1.2,8*31
$BDGSA,A,3,,,,,,,,,,,,,1.4,0.7,1.2,9*37
$GAGSA,A,3,136,,,,,,,,,,,,1.4,0.7,1.2,7*0D
$GAGSA,A,3,136,,,,,,,,,,,,1.4,0.7,1.2,1*0B
$GAGSA,A,3,,,,,,,,,,,,,1.4,0.7,1.2,2*3C
$QZGSA,A,3,194,195,,,,,,,,,,,1.4,0.7,1.2,1*33
$QZGSA,A,3,195,,,,,,,,,,,,1.4,0.7,1.2,8*06
$PIGSA,A,3,283,,,,,,,,,,,,1.4,0.7,1.2,8*10
$GPGSV,6,1,19,05,23,094,21,10,08,307,,12,08,148,,13,13,042,,1*6C
$GPGSV,6,2,19,15,41,027,16,18,65,300,34,23,35,330,25,24,73,110,20,1*65
$GPGSV,6,3,19,29,16,206,15,32,06,249,,1*6D
$GPGSV,6,4,19,40,20,257,,41,46,238,,42,46,122,,43,05,,,1*51
$GPGSV,6,5,19,50,46,122,,53,05,,,54,05,,,1*5E
$GPGSV,6,6,19,18,65,300,40,23,35,330,18,8*66
$GLGSV,3,1,09,65,16,048,,66,36,352,18,67,20,294,18,75,13,045,,1*77
$GLGSV,3,2,09,76,33,103,16,77,19,155,,81,54,274,26,82,20,323,25,1*7D
$GLGSV,3,3,09,88,35,193,24,1*4A
$BDGSV,17,1,65,201,48,120,,202,48,239,,203,65,190,41,204,32,110,,1*41
$BDGSV,17,2,65,205,26,262,,206,71,215,09,207,10,191,,208,63,023,11,1*49
$BDGSV,17,3,65,209,54,212,28,210,10,201,,213,59,356,28,216,73,216,09,1*48
$BDGSV,17,4,65,219,42,328,23,220,39,038,32,222,08,285,,229,39,220,24,1*40
$BDGSV,17,5,65,230,09,171,31,235,29,289,29,236,20,179,15,237,23,061,22,1*41
$BDGSV,17,6,65,238,68,059,28,239,83,247,31,246,43,127,20,1*46
$BDGSV,17,7,65,201,48,121,,202,45,233,,203,60,188,,204,32,110,,7*4E
$BDGSV,17,8,65,205,24,257,,206,71,215,,207,10,191,,208,63,023,,7*48
$BDGSV,17,9,65,209,54,212,,210,10,201,,213,59,356,,216,73,216,,7*4D
$BDGSV,17,10,65,219,42,328,17,220,39,038,32,222,08,285,,229,39,220,,7*72
$BDGSV,17,11,65,230,09,171,28,235,29,289,27,236,20,179,,237,23,061,,7*70
$BDGSV,17,12,65,238,68,059,20,239,83,247,31,246,43,127,23,259,51,125,,7*72
$BDGSV,17,13,65,260,44,242,,261,63,189,,262,31,112,,7*72
$BDGSV,17,14,65,219,42,328,,220,39,038,28,222,08,285,,229,39,220,,8*74
$BDGSV,17,15,65,230,09,171,35,235,29,289,,236,20,179,25,237,23,061,,8*75
$BDGSV,17,16,65,238,68,059,18,239,83,247,29,246,43,127,23,259,51,125,,8*7B
$BDGSV,17,17,65,260,44,242,,261,63,189,,262,31,112,,8*79
$QZGSV,2,1,05,193,09,056,,194,21,135,12,195,42,164,24,196,66,052,,1*73
$QZGSV,2,2,05,195,42,164,26,8*78
$GAGSV,4,1,10,104,18,045,,105,38,272,,109,55,356,,110,26,156,,7*7C
$GAGSV,4,2,10,111,53,167,,124,10,157,,131,14,109,,134,16,323,,7*7B
$GAGSV,4,3,10,136,66,297,34,7*7A
$GAGSV,4,4,10,136,66,297,40,1*78
$PIGSV,2,1,06,282,06,238,,283,48,241,33,284,32,167,,285,05,,,8*56
$PIGSV,2,2,06,287,05,,,289,23,277,,8*5D
$GPRMC,084859.00,A,2218.931103,N,11410.121368,E,000.2,296.1,240723,,E,A*17
$GPGGA,084900.00,2218.932061,N,11410.122290,E,1,23,0.6,52.3,M,,M,,*4D
$GNGSA,A,3,5,15,18,23,24,29,203,206,208,209,213,216,1.1,0.6,1.0*1E
$GPGSA,A,3,5,15,18,23,24,29,,,,,,,1.1,0.6,1.0,1*1C
$GPGSA,A,3,18,23,,,,,,,,,,,1.1,0.6,1.0,8*29
$GLGSA,A,3,66,67,76,81,82,88,,,,,,,1.1,0.6,1.0,1*37
$BDGSA,A,3,203,206,208,209,213,216,219,220,229,230,235,236,1.1,0.6,1.0,1*39
$BDGSA,A,3,219,220,230,235,238,239,246,,,,,,1.1,0.6,1.0,7*01
$BDGSA,A,3,220,230,236,238,239,246,,,,,,,1.1,0.6,1.0,8*37
$BDGSA,A,3,,,,,,,,,,,,,1.1,0.6,1.0,9*31
$GAGSA,A,3,136,,,,,,,,,,,,1.1,0.6,1.0,7*0B
$GAGSA,A,3,136,,,,,,,,,,,,1.1,0.6,1.0,1*0D
$GAGSA,A,3,,,,,,,,,,,,,1.1,0.6,1.0,2*3A
$QZGSA,A,3,194,195,,,,,,,,,,,1.1,0.6,1.0,1*35
$QZGSA,A,3,195,,,,,,,,,,,,1.1,0.6,1.0,8*00
$PIGSA,A,3,283,,,,,,,,,,,,1.1,0.6,1.0,8*16
$GPGSV,6,1,19,05,23,094,21,10,08,307,,12,08,148,,13,13,042,,1*6C
$GPGSV,6,2,19,15,41,027,17,18,65,300,31,23,35,330,24,24,73,110,20,1*60
$GPGSV,6,3,19,29,16,206,15,32,06,249,,1*6D
$GPGSV,6,4,19,40,20,257,,41,46,238,,42,46,122,,43,05,,,1*51
$GPGSV,6,5,19,50,46,122,,53,05,,,54,05,,,1*5E
$GPGSV,6,6,19,18,65,300,39,23,35,330,19,8*69
$GLGSV,3,1,09,65,16,048,,66,36,352,18,67,20,294,18,75,13,045,,1*77
$GLGSV,3,2,09,76,33,103,16,77,19,155,,81,54,274,24,82,20,323,26,1*7C
$GLGSV,3,3,09,88,35,193,22,1*4C
$BDGSV,17,1,65,201,48,120,,202,48,239,,203,65,190,41,204,32,110,,1*41
$BDGSV,17,2,65,205,26,262,,206,71,215,09,207,10,191,,208,63,023,12,1*4A
$BDGSV,17,3,65,209,54,212,27,210,10,201,,213,59,356,27,216,73,216,31,1*43
$BDGSV,17,4,65,219,42,328,20,220,39,038,29,222,08,285,,229,39,220,27,1*4A
$BDGSV,17,5,65,230,09,171,32,235,29,289,29,236,20,179,15,237,23,061,20,1*40
$BDGSV,17,6,65,238,68,059,29,239,83,247,31,246,43,127,24,1*43
$BDGSV,17,7,65,201,48,121,,202,45,233,,203,60,188,,204,32,110,,7*4E
$BDGSV,17,8,65,205,24,257,,206,71,215,,207,10,191,,208,63,023,,7*48
$BDGSV,17,9,65,209,54,212,,210,10,201,,213,59,356,,216,73,216,,7*4D
$BDGSV,17,10,65,219,42,328,18,220,39,038,31,222,08,285,,229,39,220,,7*7E
$BDGSV,17,11,65,230,09,171,28,235,29,289,25,236,20,179,,237,23,061,,7*72
$BDGSV,17,12,65,238,68,059,20,239,83,247,32,246,43,127,22,259,51,125,,7*70
$BDGSV,17,13,65,260,44,242,,261,63,189,,262,31,112,,7*72
$BDGSV,17,14,65,219,42,328,,220,39,038,27,222,08,285,,229,39,220,,8*7B
$BDGSV,17,15,65,230,09,171,35,235,29,289,,236,20,179,25,237,23,061,,8*75
$BDGSV,17,16,65,238,68,059,19,239,83,247,28,246,43,127,23,259,51,125,,8*7B
$BDGSV,17,17,65,260,44,242,,261,63,189,,262,31,112,,8*79
$QZGSV,2,1,05,193,09,056,,194,21,135,13,195,42,164,26,196,66,052,,1*70
$QZGSV,2,2,05,195,42,164,26,8*78
$GAGSV,4,1,10,104,18,045,,105,38,272,,109,55,356,,110,26,156,,7*7C
$GAGSV,4,2,10,111,53,167,,124,10,157,,131,14,109,,134,16,323,,7*7B
$GAGSV,4,3,10,136,66,297,35,7*7B
$GAGSV,4,4,10,136,66,297,39,1*76
$PIGSV,2,1,06,282,06,238,,283,48,241,35,284,32,167,,285,05,,,8*50
$PIGSV,2,2,06,287,05,,,289,23,277,,8*5D
$GPRMC,084900.00,A,2218.932061,N,11410.122290,E,000.1,296.1,240723,,E,A*1A
$GPGGA,084901.00,2218.929219,N,11410.122921,E,1,24,0.6,43.9,M,,M,,*47
$GNGSA,A,3,5,15,18,23,24,29,203,206,208,209,213,216,1.2,0.6,1.0*1D
$GPGSA,A,3,5,15,18,23,24,29,,,,,,,1.2,0.6,1.0,1*1F
$GPGSA,A,3,18,23,,,,,,,,,,,1.2,0.6,1.0,8*2A
$GLGSA,A,3,66,67,76,81,82,88,,,,,,,1.2,0.6,1.0,1*34
$BDGSA,A,3,203,206,208,209,213,216,219,220,229,230,235,236,1.2,0.6,1.0,1*3A
$BDGSA,A,3,219,220,230,235,238,239,246,,,,,,1.2,0.6,1.0,7*02
$BDGSA,A,3,220,230,236,238,239,246,,,,,,,1.2,0.6,1.0,8*34
$BDGSA,A,3,,,,,,,,,,,,,1.2,0.6,1.0,9*32
$GAGSA,A,3,136,,,,,,,,,,,,1.2,0.6,1.0,7*08
$GAGSA,A,3,105,109,136,,,,,,,,,,1.2,0.6,1.0,1*02
$GAGSA,A,3,,,,,,,,,,,,,1.2,0.6,1.0,2*39
$QZGSA,A,3,194,195,,,,,,,,,,,1.2,0.6,1.0,1*36
$QZGSA,A,3,195,,,,,,,,,,,,1.2,0.6,1.0,8*03
$PIGSA,A,3,283,,,,,,,,,,,,1.2,0.6,1.0,8*15
$GPGSV,6,1,19,05,23,094,21,10,08,307,,12,08,148,,13,13,042,,1*6C
$GPGSV,6,2,19,15,41,027,17,18,65,300,29,23,35,330,26,24,73,110,20,1*6B
$GPGSV,6,3,19,29,16,206,15,32,06,249,,1*6D
$GPGSV,6,4,19,40,20,257,,41,46,238,,42,46,122,,43,05,,,1*51
$GPGSV,6,5,19,50,46,122,,53,05,,,54,05,,,1*5E
$GPGSV,6,6,19,18,65,300,39,23,35,330,20,8*63
$GLGSV,3,1,09,65,16,048,,66,36,352,18,67,20,294,17,75,13,045,,1*78
$GLGSV,3,2,09,76,33,103,14,77,19,155,,81,54,273,22,82,20,323,24,1*7D
$GLGSV,3,3,09,88,35,193,20,1*4E
$BDGSV,17,1,65,201,48,120,,202,48,239,,203,65,190,40,204,32,110,,1*40
$BDGSV,17,2,65,205,26,262,,206,71,215,09,207,10,191,,208,63,023,13,1*4B
$BDGSV,17,3,65,209,54,212,26,210,10,201,,213,59,356,25,216,73,216,37,1*46
$BDGSV,17,4,65,219,42,328,23,220,39,038,29,222,08,285,,229,39,220,27,1*49
$BDGSV,17,5,65,230,09,171,29,235,29,289,28,236,20,179,16,237,23,061,20,1*48
$BDGSV,17,6,65,238,68,059,30,239,83,247,30,246,43,127,26,1*48
$BDGSV,17,7,65,201,48,121,,202,45,233,,203,60,188,,204,32,110,,7*4E
$BDGSV,17,8,65,205,24,257,,206,71,215,,207,10,191,,208,63,023,,7*48
$BDGSV,17,9,65,209,54,212,,210,10,201,,213,59,356,,216,73,216,,7*4D
$BDGSV,17,10,65,219,42,328,19,220,39,038,31,222,08,285,,229,39,220,,7*7F
$BDGSV,17,11,65,230,09,171,28,235,29,289,26,236,20,179,,237,23,061,,7*71
$BDGSV,17,12,65,238,68,059,20,239,83,247,30,246,43,127,23,259,51,125,,7*73
$BDGSV,17,13,65,260,44,242,,261,63,189,,262,31,112,,7*72
$BDGSV,17,14,65,219,42,328,,220,39,038,27,222,08,285,,229,39,220,,8*7B
$BDGSV,17,15,65,230,09,171,35,235,29,289,,236,20,179,24,237,23,061,,8*74
$BDGSV,17,16,65,238,68,059,20,239,83,247,25,246,43,127,21,259,51,125,,8*7E
$BDGSV,17,17,65,260,44,242,,261,63,189,,262,31,112,,8*79
$QZGSV,2,1,05,193,09,056,,194,21,135,13,195,42,164,22,196,66,052,,1*74
$QZGSV,2,2,05,195,42,164,27,8*79
$GAGSV,4,1,12,104,18,045,,105,38,272,,109,55,356,,110,26,156,,7*7E
$GAGSV,4,2,12,111,53,167,,124,10,157,,131,14,109,,134,16,323,,7*79
$GAGSV,4,3,12,136,66,297,33,7*7F
$GAGSV,4,4,12,105,38,272,22,109,55,356,22,136,66,297,39,1*74
$PIGSV,2,1,06,282,06,238,,283,48,241,36,284,32,167,,285,05,,,8*53
$PIGSV,2,2,06,287,05,,,289,23,277,,8*5D
$GPRMC,084901.00,A,2218.929219,N,11410.122921,E,001.2,296.1,240723,,E,A*1F
$GPGGA,084902.00,2218.928612,N,11410.122665,E,1,23,0.6,45.9,M,,M,,*44
$GNGSA,A,3,5,15,18,23,24,29,203,206,208,209,213,216,1.1,0.6,0.9*16
$GPGSA,A,3,5,15,18,23,24,29,,,,,,,1.1,0.6,0.9,1*14
$GPGSA,A,3,18,23,,,,,,,,,,,1.1,0.6,0.9,8*21
$GLGSA,A,3,66,67,76,81,82,88,,,,,,,1.1,0.6,0.9,1*3F
$BDGSA,A,3,203,206,208,209,213,216,219,220,229,230,235,236,1.1,0.6,0.9,1*31
$BDGSA,A,3,219,220,230,235,238,239,246,,,,,,1.1,0.6,0.9,7*09
$BDGSA,A,3,220,230,236,238,239,246,,,,,,,1.1,0.6,0.9,8*3F
$BDGSA,A,3,,,,,,,,,,,,,1.1,0.6,0.9,9*39
$GAGSA,A,3,136,,,,,,,,,,,,1.1,0.6,0.9,7*03
$GAGSA,A,3,105,109,136,,,,,,,,,,1.1,0.6,0.9,1*09
$GAGSA,A,3,,,,,,,,,,,,,1.1,0.6,0.9,2*32
$QZGSA,A,3,194,195,,,,,,,,,,,1.1,0.6,0.9,1*3D
$QZGSA,A,3,194,195,,,,,,,,,,,1.1,0.6,0.9,8*34
$PIGSA,A,3,283,,,,,,,,,,,,1.1,0.6,0.9,8*1E
$GPGSV,6,1,19,05,23,094,17,10,08,307,,12,08,148,,13,13,042,,1*69
$GPGSV,6,2,19,15,41,027,19,18,65,300,24,23,35,330,27,24,73,109,19,1*6B
$GPGSV,6,3,19,29,16,206,16,32,06,250,,1*66
$GPGSV,6,4,19,40,20,257,,41,46,238,,42,46,122,,43,05,,,1*51
$GPGSV,6,5,19,50,46,122,,53,05,,,54,05,,,1*5E
$GPGSV,6,6,19,18,65,300,39,23,35,330,20,8*63
$GLGSV,3,1,09,65,16,048,,66,36,352,18,67,20,294,17,75,13,045,,1*78
$GLGSV,3,2,09,76,33,103,12,77,19,155,,81,54,273,13,82,20,323,22,1*7F
$GLGSV,3,3,09,88,35,193,21,1*4F
$BDGSV,17,1,65,201,48,120,,202,48,239,,203,65,190,41,204,32,110,,1*41
$BDGSV,17,2,65,205,26,262,,206,71,215,29,207,10,191,,208,63,023,15,1*4F
$BDGSV,17,3,65,209,54,212,26,210,10,201,,213,59,356,20,216,73,216,34,1*40
$BDGSV,17,4,65,219,42,328,23,220,39,038,27,222,08,285,,229,39,220,28,1*48
$BDGSV,17,5,65,230,09,171,29,235,29,289,27,236,20,179,16,237,23,061,19,1*4D
$BDGSV,17,6,65,238,68,059,32,239,83,247,32,246,43,127,21,1*4F
$BDGSV,17,7,65,201,48,121,,202,45,233,,203,60,188,,204,32,110,,7*4E
$BDGSV,17,8,65,205,24,257,,206,71,215,,207,10,191,,208,63,023,,7*48
$BDGSV,17,9,65,209,54,212,,210,10,201,,213,59,356,,216,73,216,,7*4D
$BDGSV,17,10,65,219,42,328,20,220,39,038,31,222,08,285,,229,39,220,,7*75
$BDGSV,17,11,65,230,09,171,28,235,29,289,23,236,20,179,,237,23,061,,7*74
$BDGSV,17,12,65,238,68,059,21,239,83,247,32,246,43,127,18,259,51,125,,7*78
$BDGSV,17,13,65,260,44,242,,261,63,189,,262,31,112,,7*72
$BDGSV,17,14,65,219,42,328,,220,39,038,27,222,08,285,,229,39,220,,8*7B
$BDGSV,17,15,65,230,09,171,35,235,29,289,,236,20,179,24,237,23,061,,8*74
$BDGSV,17,16,65,238,68,059,20,239,83,247,28,246,43,127,22,259,51,125,,8*70
$BDGSV,17,17,65,260,44,242,,261,63,189,,262,31,112,,8*79
$QZGSV,2,1,06,193,09,056,,194,21,135,12,195,42,164,21,196,66,052,,1*75
$QZGSV,2,2,06,194,21,135,19,195,42,164,27,8*7A
$GAGSV,4,1,12,104,18,045,,105,38,272,,109,55,356,,110,26,156,,7*7E
$GAGSV,4,2,12,111,53,167,,124,10,157,,131,14,109,,134,16,323,,7*79
$GAGSV,4,3,12,136,66,297,34,7*78
$GAGSV,4,4,12,105,38,272,17,109,55,356,22,136,66,297,39,1*72
$PIGSV,2,1,06,282,06,238,,283,48,241,36,284,32,167,,285,05,,,8*53
$PIGSV,2,2,06,287,05,,,289,23,277,,8*5D
$GPRMC,084902.00,A,2218.928612,N,11410.122665,E,000.7,296.1,240723,,E,A*19
$GPGGA,084903.00,2218.928750,N,11410.121808,E,1,18,0.8,44.7,M,,M,,*4D
$GNGSA,A,3,5,15,18,23,24,29,203,206,208,209,213,216,1.5,0.8,1.3*17
$GPGSA,A,3,5,15,18,23,24,29,,,,,,,1.5,0.8,1.3,1*15
$GPGSA,A,3,18,23,,,,,,,,,,,1.5,0.8,1.3,8*20
$GLGSA,A,3,66,67,76,81,82,88,,,,,,,1.5,0.8,1.3,1*3E
$BDGSA,A,3,203,206,208,209,213,216,219,220,229,230,235,236,1.5,0.8,1.3,1*30
$BDGSA,A,3,219,220,230,235,238,239,246,,,,,,1.5,0.8,1.3,7*08
$BDGSA,A,3,219,220,230,235,236,238,239,246,,,,,1.5,0.8,1.3,8*30
$BDGSA,A,3,,,,,,,,,,,,,1.5,0.8,1.3,9*38
$GAGSA,A,3,105,136,,,,,,,,,,,1.5,0.8,1.3,7*36
$GAGSA,A,3,105,109,136,,,,,,,,,,1.5,0.8,1.3,1*08
$GAGSA,A,3,,,,,,,,,,,,,1.5,0.8,1.3,2*33
$QZGSA,A,3,194,195,,,,,,,,,,,1.5,0.8,1.3,1*3C
$QZGSA,A,3,194,195,,,,,,,,,,,1.5,0.8,1.3,8*35
$PIGSA,A,3,283,,,,,,,,,,,,1.5,0.8,1.3,8*1F
$GPGSV,6,1,19,05,23,094,18,10,08,307,,12,08,148,,13,13,042,,1*66
$GPGSV,6,2,19,15,41,027,24,18,65,300,24,23,35,330,27,24,73,109,24,1*6B
$GPGSV,6,3,19,29,16,206,16,32,06,250,,1*66
$GPGSV,6,4,19,40,20,257,,41,46,238,,42,46,122,,43,05,,,1*51
$GPGSV,6,5,19,50,46,122,,53,05,,,54,05,,,1*5E
$GPGSV,6,6,19,18,65,300,38,23,35,330,19,8*68
$GLGSV,3,1,09,65,16,048,,66,36,352,18,67,20,294,16,75,13,045,,1*79
$GLGSV,3,2,09,76,33,103,14,77,19,155,,81,54,273,15,82,20,323,20,1*7D
$GLGSV,3,3,09,88,35,193,24,1*4A
$BDGSV,17,1,65,201,48,120,,202,48,239,,203,65,190,41,204,32,110,,1*41
$BDGSV,17,2,65,205,26,262,,206,71,215,34,207,10,191,,208,63,023,15,1*43
$BDGSV,17,3,65,209,54,212,25,210,10,201,,213,59,356,23,216,73,216,36,1*42
$BDGSV,17,4,65,219,42,328,24,220,39,038,24,222,08,285,,229,39,220,28,1*4C
$BDGSV,17,5,65,230,09,171,30,235,29,289,29,236,20,179,16,237,23,061,17,1*45
$BDGSV,17,6,65,238,68,059,32,239,83,247,34,246,43,127,17,1*4C
$BDGSV,17,7,65,201,48,121,,202,45,233,,203,60,188,,204,32,110,,7*4E
$BDGSV,17,8,65,205,24,257,,206,71,215,,207,10,191,,208,63,023,,7*48
$BDGSV,17,9,65,209,54,212,,210,10,201,,213,59,356,,216,73,216,,7*4D
$BDGSV,17,10,65,219,42,328,26,220,39,038,30,222,08,285,,229,39,220,,7*72
$BDGSV,17,11,65,230,09,171,29,235,29,289,24,236,20,179,,237,23,061,,7*72
$BDGSV,17,12,65,238,68,059,24,239,83,247,34,246,43,127,17,259,51,125,,7*74
$BDGSV,17,13,65,260,44,242,,261,63,189,,262,31,112,,7*72
$BDGSV,17,14,65,219,42,328,,220,39,038,22,222,08,285,,229,39,220,,8*7E
$BDGSV,17,15,65,230,09,171,35,235,29,289,15,236,20,179,24,237,23,061,,8*70
$BDGSV,17,16,65,238,68,059,21,239,83,247,29,246,43,127,20,259,51,125,,8*72
$BDGSV,17,17,65,260,44,242,,261,63,189,,262,31,112,,8*79
$QZGSV,2,1,06,193,09,056,,194,21,135,11,195,42,164,22,196,66,052,,1*75
$QZGSV,2,2,06,194,21,135,17,195,42,164,25,8*76
$GAGSV,4,1,12,104,18,045,,105,38,272,19,109,55,356,,110,26,156,,7*76
$GAGSV,4,2,12,111,53,167,,124,10,157,,131,14,109,,134,16,323,,7*79
$GAGSV,4,3,12,136,66,297,30,7*7C
$GAGSV,4,4,12,105,38,272,17,109,55,356,21,136,66,297,39,1*71
$PIGSV,2,1,06,282,06,238,,283,48,241,37,284,32,167,,285,05,,,8*52
$PIGSV,2,2,06,287,05,,,289,23,277,,8*5D
$GPRMC,084903.00,A,2218.928750,N,11410.121808,E,001.3,296.1,240723,,E,A*1C
$GPGGA,084904.00,2218.926345,N,11410.122341,E,1,23,0.7,40.2,M,,M,,*47
$GNGSA,A,3,5,15,18,23,24,29,203,206,208,209,213,216,1.3,0.7,1.1*1C
$GPGSA,A,3,5,15,18,23,24,29,,,,,,,1.3,0.7,1.1,1*1E
$GPGSA,A,3,18,23,24,,,,,,,,,,1.3,0.7,1.1,8*2D
$GLGSA,A,3,66,67,76,81,82,88,,,,,,,1.3,0.7,1.1,1*35
$BDGSA,A,3,203,206,208,209,213,216,219,220,229,230,235,236,1.3,0.7,1.1,1*3B
$BDGSA,A,3,219,220,230,235,236,238,239,246,,,,,1.3,0.7,1.1,7*34
$BDGSA,A,3,219,220,229,230,235,236,238,239,246,,,,1.3,0.7,1.1,8*02
$BDGSA,A,3,229,230,,,,,,,,,,,1.3,0.7,1.1,9*3B
$GAGSA,A,3,105,136,,,,,,,,,,,1.3,0.7,1.1,7*3D
$GAGSA,A,3,105,109,136,,,,,,,,,,1.3,0.7,1.1,1*03
$GAGSA,A,3,,,,,,,,,,,,,1.3,0.7,1.1,2*38
$QZGSA,A,3,194,195,,,,,,,,,,,1.3,0.7,1.1,1*37
$QZGSA,A,3,194,195,,,,,,,,,,,1.3,0.7,1.1,8*3E
$PIGSA,A,3,283,,,,,,,,,,,,1.3,0.7,1.1,8*14
$GPGSV,6,1,20,05,23,094,24,10,08,307,,12,08,148,,13,13,042,,1*63
$GPGSV,6,2,20,15,41,027,24,18,65,300,30,23,35,330,24,24,73,109,22,1*61
$GPGSV,6,3,20,29,16,206,16,32,06,250,,1*6C
$GPGSV,6,4,20,40,20,257,,41,46,238,,42,46,122,,43,05,,,1*5B
$GPGSV,6,5,20,50,46,122,,53,05,,,54,05,,,1*54
$GPGSV,6,6,20,18,65,300,36,23,35,330,19,24,73,109,28,8*5C
$GLGSV,3,1,09,65,16,048,,66,36,352,17,67,20,294,24,75,13,045,,1*77
$GLGSV,3,2,09,76,33,103,17,77,19,155,,81,54,273,18,82,21,323,18,1*79
$GLGSV,3,3,09,88,35,193,25,1*4B
$BDGSV,18,1,67,201,48,120,,202,48,239,,203,65,190,37,204,32,110,,1*4D
$BDGSV,18,2,67,205,26,262,,206,71,215,30,207,10,191,,208,63,023,16,1*49
$BDGSV,18,3,67,209,54,212,30,210,10,201,,213,59,356,24,216,73,216,41,1*4C
$BDGSV,18,4,67,219,42,328,25,220,39,038,27,222,08,285,,229,39,220,25,1*4E
$BDGSV,18,5,67,230,09,171,27,235,29,289,28,236,20,179,18,237,23,061,16,1*40
$BDGSV,18,6,67,238,68,059,28,239,83,247,36,246,43,127,20,1*4C
$BDGSV,18,7,67,201,48,121,,202,45,233,,203,60,188,,204,32,110,,7*43
$BDGSV,18,8,67,205,24,257,,206,71,215,,207,10,191,,208,63,023,,7*45
$BDGSV,18,9,67,209,54,212,,210,10,201,,213,59,356,,216,73,216,,7*40
$BDGSV,18,10,67,219,42,328,25,220,39,038,29,222,08,285,,229,39,220,,7*74
$BDGSV,18,11,67,230,09,171,26,235,29,289,25,236,20,179,24,237,23,061,,7*77
$BDGSV,18,12,67,238,68,059,27,239,83,247,31,246,43,127,17,259,51,125,,7*7F
$BDGSV,18,13,67,260,44,242,,261,63,189,,262,31,112,,7*7F
$BDGSV,18,14,67,219,42,328,,220,39,038,23,222,08,285,,229,39,220,,8*72
$BDGSV,18,15,67,230,09,171,32,235,29,289,23,236,20,179,23,237,23,061,,8*78
$BDGSV,18,16,67,238,68,059,21,239,83,247,29,246,43,127,22,259,51,125,,8*7D
$BDGSV,18,17,67,260,44,242,,261,63,189,,262,31,112,,8*74
$BDGSV,18,18,67,229,05,,,230,05,,,9*74
$QZGSV,2,1,06,193,09,056,,194,21,135,12,195,42,164,29,196,66,052,,1*7D
$QZGSV,2,2,06,194,21,135,17,195,42,164,25,8*76
$GAGSV,4,1,12,104,18,045,,105,38,272,22,109,55,356,,110,26,156,,7*7E
$GAGSV,4,2,12,111,53,167,,124,10,157,,131,14,109,,134,16,323,,7*79
$GAGSV,4,3,12,136,66,297,38,7*74
$GAGSV,4,4,12,105,38,272,15,109,55,356,17,136,66,297,36,1*79
$PIGSV,2,1,06,282,06,238,,283,48,241,35,284,32,167,,285,05,,,8*50
$PIGSV,2,2,06,287,05,,,289,23,277,,8*5D
$GPRMC,084904.00,A,2218.926345,N,11410.122341,E,000.7,296.1,240723,,E,A*15
$GPGGA,084905.00,2218.927102,N,11410.120340,E,1,17,0.8,34.8,M,,M,,*44
$GNGSA,A,3,5,15,18,23,24,29,203,206,208,209,213,216,1.5,0.8,1.2*16
$GPGSA,A,3,5,15,18,23,24,29,,,,,,,1.5,0.8,1.2,1*14
$GPGSA,A,3,18,23,24,,,,,,,,,,1.5,0.8,1.2,8*27
$GLGSA,A,3,66,67,76,81,82,88,,,,,,,1.5,0.8,1.2,1*3F
$BDGSA,A,3,203,206,208,209,213,216,219,220,229,230,235,236,1.5,0.8,1.2,1*31
$BDGSA,A,3,219,220,230,235,236,238,239,246,,,,,1.5,0.8,1.2,7*3E
$BDGSA,A,3,219,220,229,230,235,236,238,239,246,,,,1.5,0.8,1.2,8*08
$BDGSA,A,3,229,230,236,,,,,,,,,,1.5,0.8,1.2,9*06
$GAGSA,A,3,105,136,,,,,,,,,,,1.5,0.8,1.2,7*37
$GAGSA,A,3,105,109,136,,,,,,,,,,1.5,0.8,1.2,1*09
$GAGSA,A,3,,,,,,,,,,,,,1.5,0.8,1.2,2*32
$QZGSA,A,3,194,195,,,,,,,,,,,1.5,0.8,1.2,1*3D
$QZGSA,A,3,194,195,,,,,,,,,,,1.5,0.8,1.2,8*34
$PIGSA,A,3,283,,,,,,,,,,,,1.5,0.8,1.2,8*1E
$GPGSV,6,1,20,05,23,094,26,10,08,307,,12,08,148,,13,13,042,,1*61
$GPGSV,6,2,20,15,41,027,18,18,65,300,38,23,35,330,19,24,73,109,26,1*6C
$GPGSV,6,3,20,29,16,206,16,32,06,250,,1*6C
$GPGSV,6,4,20,40,20,257,,41,46,238,,42,46,122,,43,05,,,1*5B
$GPGSV,6,5,20,50,46,122,,53,05,,,54,05,,,1*54
$GPGSV,6,6,20,18,65,300,32,23,35,330,18,24,73,109,24,8*55
$GLGSV,3,1,09,65,16,048,,66,36,352,25,67,20,294,22,75,13,045,,1*70
$GLGSV,3,2,09,76,33,103,18,77,19,155,,81,54,273,26,82,21,323,16,1*75
$GLGSV,3,3,09,88,35,193,22,1*4C
$BDGSV,18,1,68,201,48,120,,202,48,239,,203,65,190,26,204,32,110,,1*42
$BDGSV,18,2,68,205,26,262,,206,71,215,26,207,10,191,,208,63,023,15,1*42
$BDGSV,18,3,68,209,54,212,29,210,10,201,,213,59,356,15,216,73,216,37,1*48
$BDGSV,18,4,68,219,42,328,29,220,39,038,31,222,08,285,,229,39,220,24,1*4B
$BDGSV,18,5,68,230,09,171,30,235,29,289,25,236,20,179,19,237,23,061,16,1*45
$BDGSV,18,6,68,238,68,059,30,239,83,247,39,246,43,127,27,1*42
$BDGSV,18,7,68,201,48,121,,202,45,233,,203,60,188,,204,32,110,,7*4C
$BDGSV,18,8,68,205,24,257,,206,71,215,,207,10,191,,208,63,023,,7*4A
$BDGSV,18,9,68,209,54,212,,210,10,201,,213,59,356,,216,73,216,,7*4F
$BDGSV,18,10,68,219,42,328,27,220,39,038,27,222,08,285,,229,39,220,,7*77
$BDGSV,18,11,68,230,09,171,25,235,29,289,23,236,20,179,21,237,23,061,,7*78
$BDGSV,18,12,68,238,68,059,26,239,83,247,36,246,43,127,24,259,51,125,,7*76
$BDGSV,18,13,68,260,44,242,,261,63,189,,262,31,112,,7*70
$BDGSV,18,14,68,219,42,328,,220,39,038,24,222,08,285,,229,39,220,,8*7A
$BDGSV,18,15,68,230,09,171,28,235,29,289,25,236,20,179,23,237,23,061,,8*7A
$BDGSV,18,16,68,238,68,059,21,239,83,247,29,246,43,126,21,259,51,125,,8*70
$BDGSV,18,17,68,260,44,242,,261,63,189,,262,31,112,,8*7B
$BDGSV,18,18,68,229,05,,,230,05,,,236,05,,,9*49
$QZGSV,2,1,06,193,09,056,,194,21,135,14,195,42,164,30,196,66,052,,1*73
$QZGSV,2,2,06,194,21,135,17,195,42,164,23,8*70
$GAGSV,4,1,12,104,18,045,,105,38,272,20,109,55,356,,110,26,156,,7*7C
$GAGSV,4,2,12,111,53,167,,124,10,157,,131,14,109,,134,16,323,,7*79
$GAGSV,4,3,12,136,66,297,40,7*7B
$GAGSV,4,4,12,105,38,272,15,109,55,356,17,136,66,297,33,1*7C
$PIGSV,2,1,06,282,06,238,,283,48,241,30,284,32,167,,285,05,,,8*55
$PIGSV,2,2,06,287,05,,,289,23,277,,8*5D
$GPRMC,084905.00,A,2218.927102,N,11410.120340,E,002.0,296.1,240723,,E,A*12
$GPGGA,084906.00,2218.926943,N,11410.120806,E,1,21,0.7,31.9,M,,M,,*4C
$GNGSA,A,3,5,15,18,23,24,29,203,206,208,209,213,216,1.3,0.7,1.1*1C
$GPGSA,A,3,5,15,18,23,24,29,,,,,,,1.3,0.7,1.1,1*1E
$GPGSA,A,3,18,23,24,,,,,,,,,,1.3,0.7,1.1,8*2D
$GLGSA,A,3,66,67,76,81,82,88,,,,,,,1.3,0.7,1.1,1*35
$BDGSA,A,3,203,206,208,209,213,216,219,220,229,230,235,236,1.3,0.7,1.1,1*3B
$BDGSA,A,3,219,220,230,235,236,238,239,246,,,,,1.3,0.7,1.1,7*34
$BDGSA,A,3,219,220,229,230,235,236,238,239,246,,,,1.3,0.7,1.1,8*02
$BDGSA,A,3,230,235,,,,,,,,,,,1.3,0.7,1.1,9*36
$GAGSA,A,3,105,136,,,,,,,,,,,1.3,0.7,1.1,7*3D
$GAGSA,A,3,105,109,136,,,,,,,,,,1.3,0.7,1.1,1*03
$GAGSA,A,3,,,,,,,,,,,,,1.3,0.7,1.1,2*38
$QZGSA,A,3,194,195,,,,,,,,,,,1.3,0.7,1.1,1*37
$QZGSA,A,3,194,195,,,,,,,,,,,1.3,0.7,1.1,8*3E
$PIGSA,A,3,283,,,,,,,,,,,,1.3,0.7,1.1,8*14
$GPGSV,6,1,20,05,23,094,22,10,08,307,,12,08,148,,13,13,042,,1*65
$GPGSV,6,2,20,15,41,027,21,18,65,300,32,23,35,330,20,24,73,109,23,1*63
$GPGSV,6,3,20,29,16,206,16,32,06,250,,1*6C
$GPGSV,6,4,20,40,20,257,,41,46,238,,42,46,122,,43,05,,,1*5B
$GPGSV,6,5,20,50,46,122,,53,05,,,54,05,,,1*54
$GPGSV,6,6,20,18,65,300,31,23,35,330,17,24,73,109,13,8*5D
$GLGSV,3,1,09,65,16,048,,66,36,352,31,67,20,294,24,75,13,045,,1*73
$GLGSV,3,2,09,76,33,103,20,77,19,155,,81,54,273,25,82,21,323,16,1*7D
$GLGSV,3,3,09,88,35,193,28,1*46
$BDGSV,18,1,67,201,48,120,,202,48,239,,203,65,190,24,204,32,110,,1*4F
$BDGSV,18,2,67,205,26,262,,206,71,215,25,207,10,191,,208,63,023,15,1*4E
$BDGSV,18,3,67,209,54,212,31,210,10,201,,213,59,356,24,216,73,216,36,1*4D
$BDGSV,18,4,67,219,42,328,20,220,39,038,29,222,08,285,,229,39,220,19,1*4A
$BDGSV,18,5,67,230,09,171,26,235,29,289,28,236,20,179,20,237,23,061,16,1*4A
$BDGSV,18,6,67,238,68,059,29,239,83,247,29,246,43,126,26,1*44
$BDGSV,18,7,67,201,48,121,,202,45,233,,203,60,188,,204,32,110,,7*43
$BDGSV,18,8,67,205,24,257,,206,71,215,,207,10,191,,208,63,023,,7*45
$BDGSV,18,9,67,209,54,212,,210,10,201,,213,59,356,,216,73,216,,7*40
$BDGSV,18,10,67,219,42,328,25,220,39,038,28,222,08,285,,229,39,220,,7*75
$BDGSV,18,11,67,230,09,171,27,235,29,289,27,236,20,179,16,237,23,061,,7*75
$BDGSV,18,12,67,238,68,059,26,239,83,247,28,246,43,126,22,259,51,125,,7*71
$BDGSV,18,13,67,260,44,242,,261,63,189,,262,31,112,,7*7F
$BDGSV,18,14,67,219,42,328,,220,39,038,28,222,08,285,,229,39,220,,8*79
$BDGSV,18,15,67,230,09,171,32,235,29,289,22,236,20,179,24,237,23,061,,8*7E
$BDGSV,18,16,67,238,68,059,20,239,83,247,30,246,43,126,13,259,51,125,,8*77
$BDGSV,18,17,67,260,44,242,,261,63,189,,262,31,112,,8*74
$BDGSV,18,18,67,230,05,,,235,05,,,9*79
$QZGSV,2,1,06,193,09,056,,194,21,135,15,195,42,164,27,196,66,052,,1*74
$QZGSV,2,2,06,194,21,135,17,195,42,164,15,8*75
$GAGSV,4,1,12,104,18,045,,105,38,272,23,109,55,356,,110,26,156,,7*7F
$GAGSV,4,2,12,111,53,167,,124,10,157,,131,14,109,,134,16,323,,7*79
$GAGSV,4,3,12,136,66,297,33,7*7F
$GAGSV,4,4,12,105,38,272,16,109,55,356,17,136,66,297,30,1*7C
$PIGSV,2,1,06,282,06,238,,283,48,241,30,284,32,167,,285,05,,,8*55
$PIGSV,2,2,06,287,05,,,289,23,277,,8*5D
$GPRMC,084906.00,A,2218.926943,N,11410.120806,E,000.9,296.1,240723,,E,A*1F
$GPGGA,084907.00,2218.925365,N,11410.120223,E,1,21,0.7,28.8,M,,M,,*44
$GNGSA,A,3,5,15,18,23,24,29,203,206,208,209,213,216,1.3,0.7,1.1*1C
$GPGSA,A,3,5,15,18,23,24,29,,,,,,,1.3,0.7,1.1,1*1E
$GPGSA,A,3,18,23,24,,,,,,,,,,1.3,0.7,1.1,8*2D
$GLGSA,A,3,66,67,76,81,82,88,,,,,,,1.3,0.7,1.1,1*35
$BDGSA,A,3,203,206,208,209,213,216,219,220,229,230,235,236,1.3,0.7,1.1,1*3B
$BDGSA,A,3,219,220,230,235,236,238,239,246,,,,,1.3,0.7,1.1,7*34
$BDGSA,A,3,219,220,229,230,235,236,238,239,246,,,,1.3,0.7,1.1,8*02
$BDGSA,A,3,229,236,,,,,,,,,,,1.3,0.7,1.1,9*3D
$GAGSA,A,3,105,109,136,,,,,,,,,,1.3,0.7,1.1,7*05
$GAGSA,A,3,105,109,136,,,,,,,,,,1.3,0.7,1.1,1*03
$GAGSA,A,3,,,,,,,,,,,,,1.3,0.7,1.1,2*38
$QZGSA,A,3,194,195,,,,,,,,,,,1.3,0.7,1.1,1*37
$QZGSA,A,3,194,195,,,,,,,,,,,1.3,0.7,1.1,8*3E
$PIGSA,A,3,283,,,,,,,,,,,,1.3,0.7,1.1,8*14
$GPGSV,6,1,20,05,23,094,19,10,08,307,,12,08,148,,13,13,042,,1*6D
$GPGSV,6,2,20,15,41,027,21,18,65,300,36,23,35,330,20,24,73,109,18,1*6F
$GPGSV,6,3,20,29,16,206,16,32,06,250,,1*6C
$GPGSV,6,4,20,40,20,257,,41,46,238,,42,46,122,,43,05,,,1*5B
$GPGSV,6,5,20,50,46,122,,53,05,,,54,05,,,1*54
$GPGSV,6,6,20,18,65,300,25,23,35,330,15,24,73,109,11,8*58
$GLGSV,3,1,09,65,16,048,,66,36,352,31,67,20,294,16,75,13,045,,1*72
$GLGSV,3,2,09,76,33,103,20,77,19,155,,81,54,273,25,82,21,323,16,1*7D
$GLGSV,3,3,09,88,35,193,29,1*47
$BDGSV,18,1,67,201,48,120,,202,48,239,,203,65,190,24,204,32,110,,1*4F
$BDGSV,18,2,67,205,26,262,,206,71,215,25,207,10,191,,208,63,023,14,1*4F
$BDGSV,18,3,67,209,54,212,33,210,10,201,,213,59,356,27,216,73,216,37,1*4D
$BDGSV,18,4,67,219,42,328,20,220,39,038,33,222,08,285,,229,39,220,25,1*4E
$BDGSV,18,5,67,230,09,171,23,235,29,289,33,236,20,179,20,237,23,061,17,1*44
$BDGSV,18,6,67,238,68,059,27,239,83,247,21,246,43,126,21,1*45
$BDGSV,18,7,67,201,48,121,,202,45,233,,203,60,188,,204,32,110,,7*43
$BDGSV,18,8,67,205,24,257,,206,71,215,,207,10,191,,208,63,023,,7*45
$BDGSV,18,9,67,209,54,212,,210,10,201,,213,59,356,,216,73,216,,7*40
$BDGSV,18,10,67,219,42,328,23,220,39,038,33,222,08,285,,229,39,220,,7*79
$BDGSV,18,11,67,230,09,171,27,235,29,289,25,236,20,179,16,237,23,061,,7*77
$BDGSV,18,12,67,238,68,059,25,239,83,247,22,246,43,126,17,259,51,125,,7*7E
$BDGSV,18,13,67,260,44,242,,261,63,189,,262,31,112,,7*7F
$BDGSV,18,14,67,219,42,328,,220,39,038,25,222,08,285,,229,39,220,,8*74
$BDGSV,18,15,67,230,09,171,34,235,29,289,17,236,20,179,26,237,23,061,,8*7C
$BDGSV,18,16,67,238,68,059,20,239,83,247,31,246,43,126,11,259,51,125,,8*74
$BDGSV,18,17,67,260,44,242,,261,63,189,,262,31,112,,8*74
$BDGSV,18,18,67,229,05,,,236,05,,,9*72
$QZGSV,2,1,06,193,09,056,,194,21,135,16,195,42,164,20,196,66,052,,1*70
$QZGSV,2,2,06,194,21,135,15,195,42,164,17,8*75
$GAGSV,4,1,12,104,18,045,,105,38,272,19,109,55,356,21,110,26,156,,7*75
$GAGSV,4,2,12,111,53,167,,124,10,157,,131,14,109,,134,16,323,,7*79
$GAGSV,4,3,12,136,66,297,36,7*7A
$GAGSV,4,4,12,105,38,272,17,109,55,356,17,136,66,297,27,1*7B
$PIGSV,2,1,06,282,06,238,,283,48,241,26,284,32,167,,285,05,,,8*52
$PIGSV,2,2,06,287,05,,,289,23,277,,8*5D
$GPRMC,084907.00,A,2218.925365,N,11410.120223,E,000.6,296.1,240723,,E,A*11
$GPGGA,084908.00,2218.924554,N,11410.122582,E,1,19,0.9,30.6,M,,M,,*42
$GNGSA,A,3,5,15,18,23,24,29,203,206,208,209,213,216,1.6,0.9,1.4*12
$GPGSA,A,3,5,15,18,23,24,29,,,,,,,1.6,0.9,1.4,1*10
$GPGSA,A,3,18,23,24,,,,,,,,,,1.6,0.9,1.4,8*23
$GLGSA,A,3,66,67,76,81,82,88,,,,,,,1.6,0.9,1.4,1*3B
$BDGSA,A,3,203,206,208,209,213,216,219,220,229,230,235,236,1.6,0.9,1.4,1*35
$BDGSA,A,3,219,220,230,235,236,238,239,246,,,,,1.6,0.9,1.4,7*3A
$BDGSA,A,3,219,220,229,230,235,236,237,238,239,246,,,1.6,0.9,1.4,8*3A
$BDGSA,A,3,229,230,235,,,,,,,,,,1.6,0.9,1.4,9*01
$GAGSA,A,3,105,109,136,,,,,,,,,,1.6,0.9,1.4,7*0B
$GAGSA,A,3,105,109,136,,,,,,,,,,1.6,0.9,1.4,1*0D
$GAGSA,A,3,,,,,,,,,,,,,1.6,0.9,1.4,2*36
$QZGSA,A,3,194,195,,,,,,,,,,,1.6,0.9,1.4,1*39
$QZGSA,A,3,194,195,,,,,,,,,,,1.6,0.9,1.4,8*30
$PIGSA,A,3,283,,,,,,,,,,,,1.6,0.9,1.4,8*1A
$GPGSV,6,1,20,05,23,094,26,10,08,307,,12,08,148,,13,13,042,,1*61
$GPGSV,6,2,20,15,41,027,21,18,65,300,36,23,35,330,21,24,73,109,19,1*6F
$GPGSV,6,3,20,29,16,206,15,32,06,250,,1*6F
$GPGSV,6,4,20,40,20,257,,41,46,238,,42,46,122,,43,05,,,1*5B
$GPGSV,6,5,20,50,46,122,,53,05,,,54,05,,,1*54
$GPGSV,6,6,20,18,65,300,27,23,35,330,14,24,73,109,12,8*58
$GLGSV,3,1,09,65,16,048,,66,36,352,31,67,20,294,15,75,13,045,,1*71
$GLGSV,3,2,09,76,33,103,19,77,19,155,,81,54,273,24,82,21,323,16,1*76
$GLGSV,3,3,09,88,35,193,29,1*47
$BDGSV,18,1,68,201,48,120,,202,48,239,,203,65,190,25,204,32,110,,1*41
$BDGSV,18,2,68,205,26,262,,206,71,215,27,207,10,191,,208,63,023,14,1*42
$BDGSV,18,3,68,209,54,212,32,210,10,201,,213,59,356,28,216,73,216,39,1*42
$BDGSV,18,4,68,219,42,328,24,220,39,038,32,222,08,285,,229,39,220,25,1*44
$BDGSV,18,5,68,230,09,171,26,235,29,289,31,236,20,179,21,237,23,061,18,1*42
$BDGSV,18,6,68,238,68,059,28,239,83,247,29,246,43,126,25,1*49
$BDGSV,18,7,68,201,48,121,,202,45,233,,203,60,188,,204,32,110,,7*4C
$BDGSV,18,8,68,205,24,257,,206,71,215,,207,10,191,,208,63,023,,7*4A
$BDGSV,18,9,68,209,54,212,,210,10,201,,213,59,356,,216,73,216,,7*4F
$BDGSV,18,10,68,219,42,328,23,220,39,038,31,222,08,285,,229,39,220,,7*74
$BDGSV,18,11,68,230,09,171,23,235,29,289,25,236,20,179,18,237,23,061,,7*72
$BDGSV,18,12,68,238,68,059,23,239,83,247,28,246,43,126,20,259,51,125,,7*79
$BDGSV,18,13,68,260,44,242,,261,63,189,,262,31,112,,7*70
$BDGSV,18,14,68,219,42,328,,220,39,038,20,222,08,285,,229,39,220,,8*7E
$BDGSV,18,15,68,230,09,171,32,235,29,289,19,236,20,179,23,237,23,061,,8*7E
$BDGSV,18,16,68,238,68,059,20,239,83,247,30,246,43,126,10,259,51,125,,8*7B
$BDGSV,18,17,68,260,44,242,,261,63,189,,262,31,112,,8*7B
$BDGSV,18,18,68,229,05,,,230,05,,,235,05,,,9*4A
$QZGSV,2,1,06,193,09,056,,194,21,135,16,195,42,164,29,196,66,052,,1*79
$QZGSV,2,2,06,194,21,135,15,195,42,164,18,8*7A
$GAGSV,4,1,12,104,18,045,,105,38,272,14,109,55,356,22,110,26,156,,7*7B
$GAGSV,4,2,12,111,53,167,,124,10,157,,131,14,109,,134,16,323,,7*79
$GAGSV,4,3,12,136,66,297,38,7*74
$GAGSV,4,4,12,105,38,272,17,109,55,356,17,136,66,297,23,1*7F
$PIGSV,2,1,06,282,06,238,,283,48,241,29,284,32,167,,285,05,,,8*5D
$PIGSV,2,2,06,287,05,,,289,23,277,,8*5D
$GPRMC,084908.00,A,2218.924554,N,11410.122582,E,000.7,296.1,240723,,E,A*14
$GPGGA,084909.00,2218.923940,N,11410.123136,E,1,16,0.9,29.7,M,,M,,*41
$GNGSA,A,3,5,15,18,23,24,29,203,206,208,209,213,216,2.1,0.9,1.8*1A
$GPGSA,A,3,5,15,18,23,24,29,,,,,,,2.1,0.9,1.8,1*18
$GPGSA,A,3,18,23,24,,,,,,,,,,2.1,0.9,1.8,8*2B
$GLGSA,A,3,65,66,67,76,81,82,88,,,,,,2.1,0.9,1.8,1*30
$BDGSA,A,3,203,206,208,209,213,216,219,220,229,230,235,236,2.1,0.9,1.8,1*3D
$BDGSA,A,3,219,220,230,235,236,238,239,246,,,,,2.1,0.9,1.8,7*32
$BDGSA,A,3,220,229,230,235,236,237,238,239,246,,,,2.1,0.9,1.8,8*08
$BDGSA,A,3,230,,,,,,,,,,,,2.1,0.9,1.8,9*04
$GAGSA,A,3,105,109,136,,,,,,,,,,2.1,0.9,1.8,7*03
$GAGSA,A,3,105,109,136,,,,,,,,,,2.1,0.9,1.8,1*05
$GAGSA,A,3,,,,,,,,,,,,,2.1,0.9,1.8,2*3E
$QZGSA,A,3,194,195,,,,,,,,,,,2.1,0.9,1.8,1*31
$QZGSA,A,3,194,195,,,,,,,,,,,2.1,0.9,1.8,8*38
$PIGSA,A,3,283,285,,,,,,,,,,,2.1,0.9,1.8,8*2D
$GPGSV,6,1,20,05,23,094,22,10,08,307,,12,08,148,,13,13,042,,1*65
$GPGSV,6,2,20,15,41,027,21,18,65,300,38,23,35,330,15,24,73,109,19,1*66
$GPGSV,6,3,20,29,16,206,16,32,06,250,,1*6C
$GPGSV,6,4,20,40,20,257,,41,46,238,,42,46,122,,43,05,,,1*5B
$GPGSV,6,5,20,50,46,122,,53,05,,,54,05,,,1*54
$GPGSV,6,6,20,18,65,300,28,23,35,330,14,24,73,109,13,8*56
$GLGSV,3,1,09,65,16,048,17,66,36,352,27,67,20,294,17,75,13,045,,1*72
$GLGSV,3,2,09,76,33,103,20,77,19,155,,81,54,273,24,82,21,323,16,1*7C
$GLGSV,3,3,09,88,35,193,27,1*49
$BDGSV,18,1,66,201,48,120,,202,48,239,,203,65,190,26,204,32,110,,1*4C
$BDGSV,18,2,66,205,26,262,,206,71,215,32,207,10,191,,208,63,023,14,1*48
$BDGSV,18,3,66,209,54,212,30,210,10,201,,213,59,356,27,216,73,216,37,1*4F
$BDGSV,18,4,66,219,42,328,26,220,39,038,32,222,08,285,,229,39,220,26,1*4B
$BDGSV,18,5,66,230,09,171,30,235,29,289,34,236,20,179,24,237,23,061,17,1*44
$BDGSV,18,6,66,238,68,059,29,239,83,247,33,246,43,126,23,1*4B
$BDGSV,18,7,66,201,48,121,,202,45,233,,203,60,188,,204,32,110,,7*42
$BDGSV,18,8,66,205,24,257,,206,71,215,,207,10,191,,208,63,023,,7*44
$BDGSV,18,9,66,209,54,212,,210,10,201,,213,59,356,,216,73,216,,7*41
$BDGSV,18,10,66,219,42,328,21,220,39,038,32,222,08,285,,229,39,220,,7*7B
$BDGSV,18,11,66,230,09,171,25,235,29,289,25,236,20,179,20,237,23,061,,7*71
$BDGSV,18,12,66,238,68,059,22,239,83,247,31,246,43,126,27,259,51,125,,7*79
$BDGSV,18,13,66,260,44,242,,261,63,189,,262,31,112,,7*7E
$BDGSV,18,14,66,219,42,328,,220,39,038,18,222,08,285,,229,39,220,,8*7B
$BDGSV,18,15,66,230,09,171,32,235,29,289,20,236,20,179,22,237,23,061,,8*7B
$BDGSV,18,16,66,238,68,059,19,239,83,247,33,246,43,126,11,259,51,125,,8*7D
$BDGSV,18,17,66,260,44,242,,261,63,189,,262,31,112,,8*75
$BDGSV,18,18,66,230,05,,31,9*4B
$QZGSV,2,1,06,193,09,056,,194,21,135,17,195,42,164,28,196,66,052,,1*79
$QZGSV,2,2,06,194,21,135,14,195,42,164,19,8*7A
$GAGSV,4,1,12,104,18,045,,105,38,272,15,109,55,356,21,110,26,156,,7*79
$GAGSV,4,2,12,111,53,167,,124,10,157,,131,14,109,,134,16,323,,7*79
$GAGSV,4,3,12,136,66,297,38,7*74
$GAGSV,4,4,12,105,38,272,16,109,55,356,16,136,66,297,30,1*7D
$PIGSV,2,1,06,282,06,238,,283,48,241,28,284,32,167,,285,05,,34,8*5B
$PIGSV,2,2,06,287,05,,,289,23,277,,8*5D
$GPRMC,084909.00,A,2218.923940,N,11410.123136,E,000.9,296.1,240723,,E,A*1F
$GPGGA,084910.00,2218.923676,N,11410.123065,E,1,26,0.6,31.2,M,,M,,*44
$GNGSA,A,3,5,15,18,23,24,29,203,206,208,209,213,216,1.1,0.6,1.0*1E
$GPGSA,A,3,5,15,18,23,24,29,,,,,,,1.1,0.6,1.0,1*1C
$GPGSA,A,3,18,23,24,,,,,,,,,,1.1,0.6,1.0,8*2F
$GLGSA,A,3,65,66,67,76,81,82,88,,,,,,1.1,0.6,1.0,1*34
$BDGSA,A,3,203,206,208,209,213,216,219,220,229,230,235,236,1.1,0.6,1.0,1*39
$BDGSA,A,3,219,220,230,235,236,238,239,246,,,,,1.1,0.6,1.0,7*36
$BDGSA,A,3,219,220,229,230,235,236,237,238,239,246,,,1.1,0.6,1.0,8*36
$BDGSA,A,3,219,220,235,,,,,,,,,,1.1,0.6,1.0,9*0F
$GAGSA,A,3,105,109,136,,,,,,,,,,1.1,0.6,1.0,7*07
$GAGSA,A,3,105,109,136,,,,,,,,,,1.1,0.6,1.0,1*01
$GAGSA,A,3,,,,,,,,,,,,,1.1,0.6,1.0,2*3A
$QZGSA,A,3,194,195,,,,,,,,,,,1.1,0.6,1.0,1*35
$QZGSA,A,3,194,195,,,,,,,,,,,1.1,0.6,1.0,8*3C
$PIGSA,A,3,283,285,,,,,,,,,,,1.1,0.6,1.0,8*29
$GPGSV,6,1,20,05,23,094,26,10,08,307,,12,08,148,,13,13,042,,1*61
$GPGSV,6,2,20,15,41,027,21,18,65,300,35,23,35,330,27,24,73,109,24,1*64
$GPGSV,6,3,20,29,16,206,15,32,06,250,,1*6F
$GPGSV,6,4,20,40,20,257,,41,46,238,,42,46,122,,43,05,,,1*5B
$GPGSV,6,5,20,50,46,122,,53,05,,,54,05,,,1*54
$GPGSV,6,6,20,18,65,300,27,23,35,330,14,24,73,109,13,8*59
$GLGSV,3,1,09,65,16,048,09,66,36,352,36,67,20,294,19,75,13,045,,1*73
$GLGSV,3,2,09,76,33,103,20,77,19,155,,81,54,273,22,82,21,323,24,1*7B
$GLGSV,3,3,09,88,35,193,27,1*49
$BDGSV,18,1,68,201,48,120,,202,48,239,,203,65,190,30,204,32,110,,1*45
$BDGSV,18,2,68,205,26,262,,206,71,215,31,207,10,191,,208,63,023,16,1*47
$BDGSV,18,3,68,209,54,212,32,210,10,201,,213,59,356,24,216,73,216,33,1*44
$BDGSV,18,4,68,219,42,328,28,220,39,038,32,222,08,285,,229,39,220,23,1*4E
$BDGSV,18,5,68,230,09,171,36,235,29,289,28,236,20,179,20,237,23,061,18,1*4A
