     3.02           OBSERVATION DATA    M (MIXED)           RINEX VERSION / TYPE
ANDROID_RINEX       UNKN                2023-07-28 16:08:49 PGM / RUN BY / DATE
Generated by Rokubun's android_rinex program                COMMENT
Four doubts or inquiries, reach us at info@rokubun.cat      COMMENT
                                                            MARKER NAME
LU                  LSGI                                    OBSERVER / AGENCY
Samsung Note8       mobiles             Android7.0          REC # / TYPE / VERS
UNKN                UNKN                                    ANT # / TYPE
        0.0000        0.0000        0.0000                  APPROX POSITION XYZ
        0.0000        0.0000        0.0000                  ANTENNA: DELTA H/E/N
G    4 C1C S1C L1C D1C                                      SYS / # / OBS TYPES
R    4 C1C S1C L1C D1C                                      SYS / # / OBS TYPES
E    4 C1C S1C L1C D1C                                      SYS / # / OBS TYPES
C    4 C1I S1I L1I D1I                                      SYS / # / OBS TYPES
J    4 C1C S1C L1C D1C                                      SYS / # / OBS TYPES
  2023    07    25    09    19    22.305461                 TIME OF FIRST OBS
                                                            END OF HEADER
> 2023 07 25 09 19 22.305461   0 29
G10  24155563.252          25.000           0.000       -1248.798
G18  20517401.898          30.000           0.000       -4184.596
G23  21527603.850          33.000           0.000       -1946.133
G24  20259933.540          37.000           0.000       -4907.693
J03  35966966.387          34.000           0.000       -4135.894
G32  24602650.639          25.000           0.000       -2179.478
R14  21494729.811          34.000           0.000        -562.918
R02  23624776.511          25.000           0.000       -5174.027
R18  20516163.758          23.000           0.000       -6060.073
R17  22788701.213          20.000           0.000       -8152.209
R03  21368892.527          29.000           0.000       -4370.303
R04  22042930.900          25.000           0.000       -3038.742
C06  35948402.639          30.000           0.000       -3794.129
C08  35849817.088          33.000           0.000       -3226.915
C09  36827400.421          23.000           0.000       -3589.095
R19  21202679.194          26.000           0.000       -2921.035
C13  36136430.370          40.000           0.000       -3093.729
C16  36177860.488          31.000           0.000       -3907.943
C20  23136751.560          35.000           0.000       -2997.748
C23  25042934.237          24.000           0.000       -5455.151
C29  24317431.992          22.000           0.000       -4205.255
C30  24157158.747          23.000           0.000       -6238.239
C38  35917699.394          28.000           0.000       -3572.058
C39  36003696.959          28.000           0.000       -4081.279
E12  24426366.978          25.000           0.000       -3102.772
G25  24861238.423          26.000           0.000       -1350.607
E19  24836077.741          38.000           0.000       -4550.407
G15  22300516.474          30.000           0.000       -5927.806
J02  37401906.499          28.000           0.000       -3801.051
> 2023 07 25 09 19 23.305461   0 32
G10  24155410.357          22.000           0.000         753.022
G18  20517816.811          29.000           0.000       -2176.457
G23  21527565.477          30.000           0.000          57.355
G24  20260482.460          34.000           0.000       -2903.484
J03  35967364.512          29.000           0.000       -2132.289
G32  24602682.417          19.000           0.000        -175.941
C32  23647613.798          31.000           0.000       -2491.090
R14  21494448.306          37.000           0.000        1466.857
R02  23625339.821          20.000           0.000       -3122.908
R18  20516806.513           9.000           0.000       -3953.108
R17  22789670.742          16.000           0.000       -6180.891
R03  21369312.836          26.000           0.000       -2331.909
R04  22043159.941          22.000           0.000        -963.498
C06  35948746.201          18.000           0.000       -1804.344
C08  35850052.725          30.000           0.000       -1240.414
C09  36827724.197          13.000           0.000       -1594.115
R19  21202866.564          20.000           0.000        -823.914
C13  36136642.323          30.000           0.000       -1111.565
C16  36178233.730          21.000           0.000       -1919.043
C20  23136948.824          29.000           0.000       -1012.111
C23  25043688.515          17.000           0.000       -3475.067
C29  24317795.341           9.000           0.000       -2233.327
C30  24157977.780          19.000           0.000       -4249.329
C38  35917995.589          26.000           0.000       -1583.192
C39  36004095.983          19.000           0.000       -2093.881
C27  26541178.824          24.000           0.000       -4606.397
E12  24426569.638          28.000           0.000       -1094.830
G25  24861078.034          19.000           0.000         662.781
E19  24836561.007          36.000           0.000       -2545.238
C37  22831130.537          36.000           0.000        -878.371
G15  22301255.162          25.000           0.000       -3927.456
J02  37402247.963          20.000           0.000       -1803.440
> 2023 07 25 09 19 24.305461   0 33
G10  24155263.759          22.000           0.262         750.118
G12  24324025.927          18.000           0.000         356.930
C39  36004499.204          27.000           0.000       -2103.338
G18  20518227.227          27.000           0.090       -2175.494
G23  21527535.797          31.000           0.394          54.703
G24  20261027.183          39.000           0.584       -2907.150
J03  35967763.835          29.000           0.362       -2133.960
G32  24602712.397          19.000          -0.193        -180.963
C32  23648002.628          31.000          -0.298       -2479.977
R14  21494176.095          41.000           0.000        1463.595
R02  23625917.221           9.000           0.000       -3112.964
C37  22831273.238          23.000           0.000        -865.971
R18  20517536.808           9.000           0.000       -3949.561
R17  22790830.939           9.000           0.000       -6183.269
R03  21369745.736          29.000           0.000       -2334.865
R04  22043367.397           9.000           0.000        -961.909
C06  35949105.952          13.000           0.329       -1797.524
C08  35850286.863          29.000           0.097       -1242.180
C09  36828017.394          24.000           0.305       -1605.941
R19  21203018.259          16.000           0.000        -827.363
C13  36136856.075          30.000          -0.140       -1111.785
C16  36178612.368          20.000           0.113       -1920.460
C20  23137141.890          27.000          -0.027       -1013.064
C23  25044340.864          22.000           0.306       -3477.946
C29  24318252.524          12.000           0.301       -2234.462
C30  24158794.115          29.000           0.079       -4246.787
C38  35918304.675          23.000           0.185       -1590.148
C27  26542056.317          22.000           0.129       -4615.209
E12  24426778.293          33.000           0.606       -1097.069
G25  24860954.220           9.000           0.172         664.932
E19  24837046.670          33.000           0.062       -2548.911
G15  22302003.444          23.000          -0.096       -3927.700
J02  37402591.824          27.000           0.116       -1807.366
> 2023 07 25 09 19 25.000001   0 35
G10  24155136.047          19.000           0.575         749.006
G12  24323963.570          17.000          -0.168         358.465
C39  36004755.526          27.000           0.000       -2112.187
G18  20518488.646          25.000           0.981       -2178.326
G23  21527470.742          36.000           0.939          52.626
G24  20261381.837          41.000          -0.351       -2908.353
J03  35968017.160          34.000           0.318       -2134.195
G32  24602709.698          15.000           0.022        -180.653
R14  21493956.047          41.000           0.000        1464.841
R02  23626277.272           9.000           0.000       -3107.189
C37  22831430.030          20.000           0.000        -876.797
R18  20518014.977           9.000           0.000       -3946.612
R13  21126307.665          22.000           0.000       -1970.340
R17  22791611.898           9.000           0.000       -6181.829
R03  21370022.145          26.000           0.000       -2338.726
R04  22043453.138           9.000           0.000        -961.160
C06  35949326.299          19.000           0.690       -1793.471
C08  35850425.067          40.000           0.406       -1243.574
C09  36828204.764          24.000           0.710       -1612.177
R19  21203112.993          16.000           0.000        -843.422
C13  36136977.491          38.000           0.240       -1112.403
C16  36178848.904          28.000           0.453       -1921.761
C20  23137249.815          36.000           0.254       -1014.665
C23  25044769.867          25.000           0.987       -3480.484
C29  24318519.040          12.000           0.272       -2227.756
C32  23648360.581          22.000           0.000       -2490.553
C30  24159332.842          29.000           0.757       -4246.591
C38  35918494.144          32.000           0.593       -1593.318
C27  26542646.908          22.000           0.914       -4613.378
E04  26235380.624          19.000           0.000        -952.649
E12  24426898.210          31.000           0.964       -1098.492
G25  24860838.200           9.000           0.033         664.819
E19  24837357.855          33.000           0.606       -2550.593
G15  22302490.907          19.000           0.580       -3931.560
J02  37402804.977          28.000           1.232       -1808.118
> 2023 07 25 09 19 26.000001   0 35
G10  24154998.143          16.000        -747.264         747.338
G12  24323887.423          10.000        -359.047         361.022
C39  36005159.647          27.000           0.000       -2109.426
G18  20518905.357          25.000        2180.912       -2181.653
G23  21527396.094          39.000           0.189          51.934
G24  20261934.655          40.000        2908.664       -2909.259
J03  35968419.182          36.000        2135.665       -2135.990
G32  24602743.275          17.000         183.921        -186.148
C32  23648848.643          22.000           0.000       -2481.392
R14  21493684.435          40.000           0.000        1463.003
R02  23626860.068           9.000           0.000       -3114.636
C37  22831604.809          26.000           0.000        -885.270
R18  20518770.454           9.000           0.000       -3947.090
R13  21126679.707          23.000           0.000       -1983.962
R17  22792757.405           9.000           0.000       -6180.379
R03  21370459.842          26.000           0.000       -2338.974
R04  22043631.514           9.000           0.000        -952.207
C06  35949681.553          24.000        1792.978       -1791.644
C08  35850662.503          43.000        1245.032       -1245.394
C09  36828512.951          27.000        1616.728       -1619.887
R19  21203281.477          14.000           0.000        -886.068
C13  36137190.044          37.000        1112.969       -1113.069
C16  36179224.544          29.000        1922.069       -1922.119
C20  23137443.781          37.000        1015.910       -1016.445
C23  25045429.710          26.000        3481.954       -3481.597
C29  24318943.546          15.000        2223.192       -2219.411
C30  24160146.179          27.000        4246.566       -4244.718
C38  35918808.926          32.000        1595.503       -1596.037
C27  26543530.996          22.000        4613.664       -4612.640
E04  26235521.826          12.000           0.215        -948.087
E12  24427109.264          30.000        1100.640       -1100.437
G25  24860715.285           9.000        -669.728         669.980
E19  24837843.219          32.000        2550.115       -2549.338
G15  22303237.990          16.000        3931.577       -3929.997
J02  37403149.438          28.000        1809.071       -1808.862
> 2023 07 25 09 19 27.000001   0 35
G10  24154857.540          17.000       -1492.301         744.699
G12  24323817.871          15.000        -718.281         358.422
C39  36005563.167          28.000           0.000       -2112.603
G18  20519324.467          26.000        4363.773       -2184.101
G23  21527366.414          40.000         -51.247          49.293
G24  20262488.371          40.000        5819.273       -2911.812
J03  35968824.201          34.000        4272.581       -2137.378
G32  24602781.049          18.000         372.773        -189.824
C32  23649335.806          23.000           0.028       -2484.674
R14  21493406.228          39.000           0.000        1460.458
R02  23627438.068           9.000           0.000       -3131.463
C37  22831782.286          27.000           0.000        -884.055
R18  20519513.639           9.000           0.000       -3946.466
R13  21127047.852          23.000           0.000       -1973.890
R17  22793903.812           9.000           0.000       -6180.414
R03  21370899.937          26.000           0.000       -2337.173
R04  22043808.692           9.000           0.000        -951.623
C06  35950036.807          26.000        3585.517       -1793.297
C08  35850901.437          42.000        2490.831       -1246.333
C09  36828823.836          25.000        3237.664       -1623.106
R19  21203453.857          16.000           0.000        -903.720
C13  36137403.196          36.000        2227.083       -1114.611
C16  36179599.584          29.000        3844.567       -1923.585
C20  23137638.646          36.000        2032.383       -1016.049
C23  25046091.352          26.000        6965.052       -3485.446
C29  24319364.754          24.000        4438.123       -2213.565
C30  24160959.516          27.000        8491.106       -4245.052
C38  35919123.708          33.000          -0.106       -1596.171
C27  26544414.784          19.000        9225.365       -4611.565
E04  26235632.450           9.000         947.487        -944.811
E12  24427318.819          30.000        2201.438       -1102.285
G25  24860590.571           9.000       -1334.397         662.389
E19  24838329.782          32.000          -0.646       -2550.466
G15  22303991.068          15.000        7860.014       -3928.741
J02  37403493.300          28.000        3617.652       -1808.257
> 2023 07 25 09 19 28.000001   0 36
G10  24154720.235          17.000       -2236.125         743.434
C20  23137834.710          33.000           0.000       -1018.035
G12  24323751.317          16.000       -1075.677         355.468
C39  36005970.885          27.000           0.000       -2113.174
G18  20519741.179          24.000        6548.793       -2185.367
G23  21527359.819          39.000        -102.052          50.045
G24  20263042.388          40.000        8731.100       -2912.673
J03  35969226.523          32.000           0.258       -2138.515
G32  24602818.823          19.000         563.425        -191.117
C32  23649814.274          24.000        2485.241       -2486.965
R14  21493140.611          39.000           0.000        1461.039
R02  23628021.164           9.000           0.000       -3163.888
C37  22831955.866          26.000           0.000        -882.639
R18  20520249.630           9.000           0.000       -3946.693
R13  21127429.188          22.000           0.000       -1962.153
G25  24860802.525          22.000         942.653         650.476
R17  22795053.516           9.000           0.000       -6181.093
R03  21371333.437          25.000           0.000       -2336.598
R04  22043988.268           9.000           0.000        -951.066
C06  35950392.061          26.000        5379.187       -1794.201
C08  35851142.471          42.000           0.222       -1246.905
C09  36829134.421          25.000        4862.125       -1625.916
R19  21203627.437          17.000           0.000        -907.663
C13  36137621.445          36.000           0.294       -1114.875
C16  36179972.826          27.000        5768.644       -1924.159
C23  25046755.092          25.000       10449.944       -3484.598
C46  24541804.762          28.000           0.000        1183.616
C29  24319784.164          25.000        6649.991       -2211.540
C30  24161771.654          26.000       12736.520       -4246.140
C38  35919432.794          32.000        1596.888       -1597.748
C27  26545298.872          21.000       13838.428       -4613.485
E04  26235821.319           9.000        1896.916        -956.256
E12  24427529.573          31.000        3303.920       -1103.184
E19  24838814.846          32.000        2551.405       -2553.090
G15  22304739.650          16.000       11789.299       -3931.180
J02  37403836.863          28.000        5426.178       -1809.840
> 2023 07 25 09 19 29.000001   0 36
G10  24154581.431          18.000       -2978.998         742.574
C20  23138022.980          35.000           0.000       -1017.791
G12  24323688.061          16.000       -1432.974         359.127
C39  36006376.504          29.000           0.000       -2113.494
G18  20520160.289          25.000        8735.422       -2187.161
G23  21527357.121          40.000        -152.279          50.730
G24  20263597.903          40.000       11643.636       -2910.481
J03  35969625.546          31.000        2138.699       -2138.704
G32  24602854.498          19.000         754.024        -190.149
C32  23650291.544          23.000        4973.156       -2488.074
R14  21492871.098          39.000           0.000        1459.683
R02  23628609.057           9.000           0.000       -3179.174
C37  22832122.550          26.000           0.000        -882.661
R18  20520990.717           9.000           0.000       -3945.563
R13  21127792.836          20.000           0.000       -1957.501
G25  24860679.310          20.000         290.836         651.148
R17  22796195.126           9.000           0.000       -6181.223
C29  24320272.226          24.000           0.000       -2217.276
R03  21371780.128          21.000           0.000       -2335.896
R04  22044168.743           9.000           0.000        -949.997
C06  35950743.418          24.000        7174.042       -1795.146
C08  35851379.606          41.000        1247.315       -1246.489
C09  36829443.507          23.000        6486.900       -1624.197
R19  21203801.617          16.000           0.000        -904.048
C13  36137834.598          38.000        1114.982       -1113.428
C16  36180344.269          24.000        7692.909       -1925.056
C23  25047421.831          25.000       13935.716       -3485.726
C46  24541611.396          24.000          -0.435        1183.424
C30  24162585.590          27.000       16983.298       -4247.352
C38  35919735.884          33.000        3193.729       -1596.120
C27  26546185.658          20.000       18451.926       -4614.641
E04  26235999.096           9.000        2854.560        -956.792
E12  24427739.128          32.000        4407.926       -1103.801
E19  24839301.110          33.000        5103.972       -2554.678
G15  22305493.628          16.000       15720.634       -3932.044
J02  37404180.125          28.000        7235.502       -1810.809
> 2023 07 25 09 19 30.000001   0 36
G10  24154442.028          18.000       -3720.961         741.086
C20  23138219.044          32.000           0.000       -1018.012
G12  24323624.205          16.000       -1792.732         359.969
C39  36006783.023          21.000           0.000       -2110.850
G18  20520579.398          32.000       10923.030       -2188.061
G23  21527352.924          37.000        -201.523          49.066
G24  20264153.718          42.000       14557.232       -2915.522
J03  35970045.855          32.000        4278.955       -2139.185
G32  24602890.473          20.000         945.052        -192.753
C32  23650766.715          24.000        7459.962       -2487.852
R14  21492584.796          36.000           0.000        1459.325
C37  22832285.638          29.000           0.000        -883.182
R18  20521727.906           9.000           0.000       -3946.788
R13  21128153.187          19.000           0.000       -1954.129
G25  24860556.995          21.000        -359.846         648.550
R17  22797349.626           9.000           0.000       -6179.200
C29  24320619.685          18.000           0.000       -2233.798
R03  21372206.432          26.000           0.000       -2337.332
R04  22044334.228           9.000           0.000        -949.613
C06  35951095.075          24.000        8969.528       -1795.345
C08  35851617.342          39.000        2494.786       -1248.313
C09  36829754.691          25.000        8111.264       -1623.906
R19  21203970.999          18.000           0.000        -896.980
C13  36138052.247          41.000        2230.243       -1116.421
C16  36180715.412          23.000        9619.040       -1926.756
C23  25048082.273          28.000       17421.544       -3485.543
C46  24541378.157          25.000       -1183.681        1182.801
C30  24163401.026          25.000       21229.845       -4247.178
C38  35920042.572          29.000        4790.181       -1596.306
E33  24172133.380          20.000           0.000       -3909.521
C27  26547073.943          16.000       23066.232       -4614.018
E04  26236181.669           9.000        3812.483        -959.774
E12  24427947.184          27.000        5511.896       -1105.832
E19  24839786.174          32.000        7657.087       -2554.814
G15  22306236.814          25.000       19652.955       -3932.655
J02  37404523.087          24.000        9045.711       -1814.229
> 2023 07 25 09 19 31.000001   0 36
G10  24154300.526          18.000       -4458.109         736.941
C20  23138418.106          28.000           0.000       -1016.379
G12  24323558.851          16.000       -2149.858         355.732
C39  36007194.938          27.000           0.000       -2112.187
G18  20520998.808          36.000       13110.977       -2186.257
G23  21527347.527          38.000        -252.447          54.032
G24  20264708.334          42.000       17470.505       -2911.945
J03  35970450.275          31.000        6417.630       -2137.644
G32  24602930.346          19.000        1138.433        -193.095
C32  23651244.584          29.000        9947.201       -2485.927
R14  21492318.880          28.000           0.000        1461.749
C37  22832441.829          23.000           0.000        -883.052
R18  20522469.893           9.000           0.000       -3945.678
R13  21128515.336          18.000           0.000       -1963.456
G25  24860435.579          13.000       -1006.255         645.391
R17  22798497.232           9.000           0.000       -6177.750
C29  24321042.393          13.000           0.000       -2209.267
R03  21372638.733          31.000           0.000       -2335.670
R04  22044509.607           9.000           0.000        -944.067
C06  35951441.335          29.000       10764.767       -1795.308
C08  35851853.578          38.000        3741.379       -1245.382
C09  36830066.476          22.000        9732.048       -1618.958
R19  21204138.883          23.000           0.000        -896.774
C13  36138267.498          42.000        3344.265       -1112.273
C16  36181090.152          24.000       11545.151       -1924.975
C23  25048743.616          29.000       20908.099       -3486.429
C46  24541148.816          23.000       -2366.108        1181.717
C30  24164212.564          26.000       25477.951       -4248.169
C38  35920348.360          26.000        6386.124       -1595.988
E33  24172894.553          15.000           0.776       -3904.861
C27  26547958.930          24.000       27680.655       -4615.024
E04  26236365.742          10.000        4772.129        -958.493
E12  24428155.540          34.000        6617.590       -1104.659
E19  24840270.938          31.000       10207.248       -2548.791
G15  22306981.498          27.000       23586.171       -3933.339
J02  37404865.151          22.000       10858.134       -1811.573
> 2023 07 25 09 19 32.000001   0 37
G05  24193025.017          19.000           0.000       -4110.518
G10  24154157.525          24.000       -5196.658         740.389
C20  23138616.569          31.000           0.000       -1016.517
G12  24323496.794          15.000       -2506.029         355.718
C39  36007597.859          26.000           0.000       -2110.221
G18  20521418.817          35.000          -0.259       -2188.046
G23  21527340.332          38.000        -303.941          51.528
G24  20265257.854          41.000       20382.940       -2915.920
J03  35970849.899          31.000        8554.160       -2136.668
G32  24602970.218          19.000        1328.452        -188.896
C32  23651723.652          25.000       12431.895       -2483.591
R14  21492046.369          29.000           0.000        1461.384
C37  22832597.122          26.000           0.000        -881.855
R18  20523209.181           9.000           0.000       -3945.316
R13  21128883.781          16.000           0.000       -1969.497
G25  24860316.261          12.000       -1650.868         645.345
R17  22799648.135           9.000           0.000       -6178.888
C29  24321471.995          15.000           0.000       -2214.880
R03  21373071.633          33.000           0.000       -2334.419
R04  22044848.372          24.000           0.000       -1080.991
E33  24173773.845          18.000           0.000       -3935.060
C06  35951788.795          30.000       12559.258       -1794.392
C08  35852092.513          34.000        4986.415       -1245.399
C09  36830376.461          22.000       11350.193       -1617.976
R19  21204312.763          20.000           0.000        -897.985
C13  36138476.753          38.000        4457.130       -1112.532
C16  36181460.096          27.000       13470.051       -1924.137
C27  26548899.979          18.000           0.000       -4618.648
C23  25049403.459          26.000       24392.829       -3485.008
C46  24540917.077          26.000       -3548.836        1181.992
C38  35920661.643          21.000           0.000       -1598.023
C30  24165023.502          25.000       29726.595       -4248.580
E04  26236548.615          12.000        5731.138        -959.029
E12  24428366.294          33.000        7721.178       -1103.619
E19  24840756.002          27.000       12756.126       -2549.985
G15  22307722.585          25.000       27519.326       -3933.337
J02  37405208.713          23.000       12666.441       -1804.810
> 2023 07 25 09 19 33.000001   0 37
G05  24193713.641          14.000           0.523       -4111.638
C39  36007977.996          27.000           0.000       -2111.698
G10  24154017.522          19.000       -5938.753         743.202
C20  23138806.338          34.000           0.000       -1017.536
G12  24323430.539          16.000       -2862.638         357.566
G18  20521834.330          36.000        2189.228       -2191.479
G23  21527339.433          38.000        -352.984          45.356
G24  20265811.571          34.000       23297.594       -2914.663
J03  35971250.721          35.000          -0.259       -2141.311
G32  24603004.394          19.000        1516.724        -188.077
C32  23652200.023          27.000       14915.876       -2485.019
R14  21491772.658          28.000           0.000        1458.968
C37  22832743.720          28.000           0.000        -883.607
R18  20523954.165           9.000           0.000       -3944.147
R13  21129255.824          17.000           0.000       -1967.639
G25  24860194.545          12.000       -2296.678         645.862
R17  22800797.539           9.000           0.000       -6177.205
C29  24321896.501          15.000           0.000       -2223.913
R03  21373506.033          31.000           0.000       -2335.549
R04  22044994.971          25.000           0.000       -1042.140
E33  24174362.337          20.000           0.160       -3936.778
C06  35952138.053          24.000       14353.928       -1796.109
C08  35852335.645          35.000        6232.935       -1248.289
C09  36830690.643          15.000       12967.697       -1617.363
R19  21204483.644          21.000           0.000        -898.910
C13  36138696.501          36.000        5572.854       -1117.110
C16  36181829.441          29.000       15394.190       -1925.448
C27  26549713.016          20.000           0.000       -4608.283
C23  25050063.002          27.000       27878.346       -3486.573
C46  24540685.637          23.000       -4730.222        1181.136
C38  35920966.532          28.000           0.000       -1598.520
C30  24165840.437          22.000       33975.878       -4249.803
E04  26236729.990          13.000        6687.952        -955.866
E12  24428582.744          34.000        8826.553       -1108.013
E19  24841241.966          27.000       15306.830       -2552.471
G15  22308463.672          31.000       31452.704       -3934.243
J02  37405553.174          28.000       14473.980       -1809.381
> 2023 07 25 09 19 34.000001   0 37
G05  24194516.785           9.000        4116.857       -4120.110
C39  36008383.315          25.000           0.000       -2118.936
G10  24153875.120          23.000       -6681.559         742.199
C20  23139002.402          36.000           0.000       -1020.526
G12  24323363.086          14.000       -3224.578         365.693
G18  20522256.138          35.000        4381.567       -2191.872
G23  21527334.936          28.000        -400.257          48.465
G24  20266364.987          36.000       26213.366       -2917.296
J03  35971659.338          34.000        2141.144       -2141.879
G32  24603038.271          17.000        1702.293        -183.733
C32  23652676.693          30.000       17402.645       -2488.119
R14  21491500.447          39.000           0.000        1455.218
C37  22832908.007          23.000           0.000        -887.808
R18  20524698.550           9.000           0.000       -3945.214
R13  21129620.671          16.000           0.000       -1962.763
G25  24859692.693          25.000       -2943.032         647.103
C30  24166732.319          17.000           0.000       -4239.251
R17  22801941.847           9.000           0.000       -6175.547
C29  24322323.706          14.000           0.000       -2238.148
R03  21373953.023          26.000           0.000       -2337.235
R04  22045192.234          25.000           0.000       -1069.915
E33  24175109.720          20.000        3931.504       -3926.896
C06  35952484.013          21.000       16152.076       -1800.572
C08  35852579.376          39.000           0.587       -1251.308
C09  36831001.228          17.000       14584.933       -1618.360
R19  21204650.029          21.000           0.000        -900.019
C13  36138908.754          39.000        6690.773       -1119.220
C16  36182202.682          30.000       17320.600       -1927.018
C27  26550599.802          27.000           0.000       -4618.187
C23  25050725.843          24.000       31365.662       -3488.801
C46  24540449.101          23.000       -5911.895        1181.117
C38  35921273.220          27.000           0.000       -1600.487
E04  26236907.167          14.000        7645.001        -959.200
E12  24428794.098          30.000        9935.125       -1108.897
E19  24841728.829          27.000       17861.941       -2556.840
G15  22309199.962          32.000       35387.609       -3936.233
J02  37405897.636          26.000       16284.995       -1811.559
> 2023 07 25 09 19 35.000001   0 37
G05  24195312.434           9.000        8238.369       -4119.940
C39  36008789.534          27.000           0.000       -2118.611
G10  24153731.220          24.000       -7423.368         741.507
C20  23139195.169          34.000           0.000       -1023.424
G12  24323292.935          13.000       -3590.657         366.144
G18  20522675.547          35.000        6573.864       -2190.440
G23  21527323.244          23.000        -448.041          46.129
G24  20266925.599          40.000       29133.486       -2921.992
J03  35972071.853          34.000        4284.143       -2142.142
G32  24603065.552          17.000        1883.271        -181.281
C32  23653153.662          30.000       19891.697       -2490.125
R14  21491228.535          38.000           0.000        1451.527
C37  22833069.295          25.000           0.000        -889.530
R18  20525438.438           9.000           0.000       -3944.545
R13  21129985.818          14.000           0.000       -1965.223
G25  24859571.877          26.000       -3591.489         648.580
C30  24167565.443          15.000           0.000       -4212.191
R17  22803090.052           9.000           0.000       -6174.599
C29  24322751.809          14.000           0.000       -2235.784
R03  21374383.825          19.000           0.000       -2339.199
R04  22045406.885          30.000           0.000       -1080.783
E33  24175844.811          27.000        7852.533       -3917.747
C06  35952838.668          19.000       17952.197       -1800.655
C08  35852820.409          35.000        1252.405       -1252.676
C09  36831311.813          17.000       16203.876       -1620.241
R19  21204828.106          15.000           0.000        -905.669
C13  36139124.605          36.000        7809.880       -1122.212
C16  36182572.626          29.000       19249.053       -1928.514
C27  26551484.490          26.000           0.000       -4609.636
C23  25051389.884          26.000       34854.857       -3490.862
C46  24540217.361          24.000       -7092.581        1178.011
C38  35921580.807          25.000           0.000       -1601.428
E04  26237085.843          13.000        8605.453        -961.005
E12  24429006.651          31.000       11045.591       -1112.343
E19  24842215.992          29.000       20419.495       -2559.066
G15  22309940.450          30.000       39325.272       -3937.673
J02  37406243.297          25.000       18096.729       -1813.124
> 2023 07 25 09 19 36.000001   0 38
G05  24196098.490           9.000       12356.665       -4114.735
C39  36009198.750          22.000           0.000       -2120.020
G10  24153590.317          22.000       -8163.865         739.846
C20  23139392.132          30.000           0.000       -1024.161
G12  24323230.878          12.000       -3957.977         366.821
G18  20523091.359          32.000        8766.191       -2194.980
G23  21527310.953          34.000        -493.367          44.189
G24  20267485.612          42.000          -0.392       -2922.611
J03  35972480.170          34.000        6427.940       -2142.740
G32  24603100.628          17.000        2066.539        -187.481
C32  23653631.232          35.000       22382.501       -2491.188
R14  21490948.529          34.000           0.000        1452.857
R02  23633568.524          17.000           0.000       -3337.839
C37  22833233.282          34.000           0.000        -891.274
R18  20526184.921           9.000           0.000       -3944.207
R13  21130353.664          16.000           0.000       -1969.835
G25  24859450.461          22.000       -4240.092         648.780
C30  24168391.071          17.000           0.000       -4243.669
R17  22804233.461           9.000           0.000       -6175.133
C29  24323181.112          14.000           0.000       -2244.944
R03  21374823.621          29.000           0.000       -2341.436
R04  22045614.642          28.000           0.000       -1080.846
E33  24176588.296          26.000       11769.581       -3916.696
C06  35953184.628          24.000       19754.029       -1803.235
C08  35853060.543          38.000        2505.380       -1253.169
C09  36831625.396          17.000       17824.229       -1622.013
R19  21204997.489          18.000           0.000        -910.453
C13  36139336.858          37.000        8930.364       -1120.346
C16  36182940.771          28.000       21178.748       -1930.900
C27  26552370.376          23.000           0.000       -4613.721
C23  25052058.721          28.000       38347.869       -3493.898
C46  24539991.617          23.000       -8267.902        1174.488
C38  35921885.696          24.000           0.000       -1603.233
E04  26237272.015          14.000        9567.540        -962.388
E12  24429216.206          33.000       12158.687       -1113.109
E19  24842702.555          28.000       22978.114       -2558.848
G15  22310689.631          32.000       43263.430       -3939.239
J02  37406589.257          30.000       19910.884       -1813.479
> 2023 07 25 09 19 37.000001   0 37
C39  36009606.468          26.000           0.000       -2119.855
G10  24153447.017          26.000       -8903.467         739.645
C20  23139591.794          29.000           0.000       -1023.546
G12  24323168.821          12.000       -4321.386         360.897
G18  20523505.972          40.000       10962.049       -2196.863
G23  21527298.361          40.000        -537.204          43.965
G24  20268042.326          43.000        2922.984       -2922.840
J03  35972890.586          34.000        8571.385       -2144.251
G32  24603136.303          18.000        2256.678        -192.871
C32  23654110.000          36.000       24873.906       -2491.609
R14  21490673.919          38.000           0.000        1451.580
R02  23634248.153          17.000           0.000       -3344.170
C37  22833402.364          26.000           0.000        -891.948
R18  20526920.612           9.000           0.000       -3944.792
R13  21130714.314          16.000           0.000       -1976.261
G25  24859329.045          23.000       -4889.204         649.841
C30  24169218.198          18.000           0.000       -4261.536
R17  22805379.567           9.000           0.000       -6174.464
C29  24323614.312          12.000           0.000       -2251.721
R03  21375260.418          35.000           0.000       -2342.139
R04  22045812.804          23.000           0.000       -1073.582
E33  24177334.480          31.000       15686.379       -3917.153
C06  35953528.490          21.000       21559.135       -1805.812
C08  35853304.874          38.000        3758.752       -1252.834
C09  36831936.881          18.000       19449.328       -1627.362
R19  21205169.869          24.000           0.000        -909.668
C13  36139552.708          24.000       10051.489       -1121.526
C16  36183308.317          26.000       23110.880       -1933.142
C27  26553257.163          24.000           0.000       -4616.156
C23  25052728.757          28.000       41842.660       -3495.645
C46  24539767.972          23.000       -9441.626        1172.864
C38  35922189.386          30.000           0.000       -1604.504
E04  26237452.490          13.000       10530.181        -962.313
E12  24429426.060          36.000       13271.997       -1113.741
E19  24843189.118          30.000       25536.114       -2558.441
G15  22311437.313          22.000       47201.755       -3934.899
J02  37406935.218          26.000       21725.199       -1815.496
> 2023 07 25 09 19 38.000001   0 37
C39  36010013.886          27.000           0.000       -2119.232
G10  24153308.213          25.000       -9642.980         739.484
C20  23139789.657          31.000           0.000       -1022.109
G12  24323107.663          12.000       -4679.377         354.702
G18  20523922.084          40.000       13159.273       -2198.040
G23  21527282.772          40.000           0.771          44.852
G24  20268599.640          43.000        5846.759       -2923.473
J03  35973302.501          36.000           0.118       -2144.208
G32  24603177.974          19.000        2449.570        -192.726
C32  23654598.063          36.000       27365.055       -2490.174
R14  21490400.808          39.000           0.000        1452.192
R02  23634841.443          13.000           0.000       -3321.462
C37  22833572.347          25.000           0.000        -893.738
R18  20527653.604          10.000           0.000       -3945.358
R13  21131080.660          16.000           0.000       -1963.892
G25  24859206.429          24.000       -5539.898         651.463
C30  24170037.531          16.000           0.000       -4270.997
R17  22806528.072          10.000           0.000       -6172.714
C29  24324045.414          12.000           0.000       -2253.489
R03  21375698.715          36.000           0.000       -2341.698
R04  22046007.969          24.000           0.000       -1080.597
E33  24178080.663          32.000       19604.206       -3918.699
C06  35953872.052          23.000       23364.482       -1804.965
C08  35853546.806          36.000        5011.852       -1252.809
C09  36832248.365          18.000       21079.763       -1632.561
R19  21205335.055          23.000           0.000        -903.969
C13  36139768.559          33.000       11172.525       -1120.837
C16  36183675.263          23.000       25044.187       -1933.056
C27  26554147.546          24.000           0.000       -4616.901
C23  25053398.193          28.000       45339.766       -3497.153
C46  24539535.033          21.000      -10615.067        1174.294
C38  35922494.275          26.000           0.000       -1604.581
E04  26237635.363          13.000       11492.492        -960.196
E12  24429637.714          36.000       14384.490       -1113.317
E19  24843676.581          26.000       28094.549       -2559.304
G15  22312175.702          21.000       51137.637       -3936.622
J02  37407280.878          28.000       23540.956       -1817.069
> 2023 07 25 09 19 39.000001   0 37
C39  36010420.405          26.000           0.000       -2118.649
G10  24153167.610          25.000      -10382.836         740.019
C20  23139989.918          27.000           0.000       -1020.558
G12  24323046.205          16.000       -5030.382         348.753
G18  20524338.196          40.000           0.279       -2197.524
G23  21527274.678          41.000         -42.842          43.946
G24  20269154.556          43.000        8771.035       -2925.042
J03  35973711.718          38.000        2143.879       -2144.063
G32  24603219.046          18.000        2642.678        -194.505
C32  23655086.125          36.000           0.381       -2488.590
R14  21490134.592          39.000           0.000        1451.569
R02  23635461.114          12.000           0.000       -3324.392
C37  22833744.428          26.000           0.000        -892.545
R18  20528389.894           9.000           0.000       -3945.105
R13  21131442.510          17.000           0.000       -1966.857
G25  24859083.215          24.000       -6190.833         650.729
C30  24170856.864          16.000           0.000       -4276.639
R17  22807673.879          12.000           0.000       -6173.672
C29  24324476.515          13.000           0.000       -2247.880
R03  21376136.712          36.000           0.000       -2341.109
R04  22046212.128          26.000           0.000       -1067.587
E33  24178833.742          31.000       23524.005       -3922.367
C06  35954215.315          25.000       25168.561       -1803.206
C08  35853789.038          35.000        6264.924       -1252.366
C09  36832561.049          17.000       22711.082       -1631.535
R19  21205502.939          19.000           0.000        -903.920
C13  36139983.510          34.000       12292.797       -1120.239
C16  36184039.211          24.000       26977.453       -1933.841
C27  26555036.431          25.000           0.000       -4616.356
C23  25054068.829          27.000       48836.786       -3496.837
C46  24539296.698          18.000      -11791.378        1176.412
C38  35922797.365          25.000           0.000       -1604.794
E04  26237823.333          15.000       12452.606        -960.332
E12  24429850.866          35.000       15497.397       -1113.073
E19  24844163.444          24.000       30653.821       -2559.372
G15  22312920.986          25.000       55074.812       -3937.371
J02  37407626.239          27.000       25357.653       -1816.205
> 2023 07 25 09 19 40.000001   0 36
C39  36010826.923          27.000           0.000       -2118.401
G10  24153025.808          26.000      -11123.347         741.136
C20  23140188.681          30.000           0.000       -1021.448
G12  24322991.044          18.000       -5378.339         348.540
G18  20524758.206          39.000        2198.245       -2198.256
G23  21527266.883          40.000         -87.439          44.681
G24  20269712.170          41.000       11695.446       -2924.510
J03  35974118.536          38.000        4287.233       -2143.598
G32  24603260.117          19.000        2836.788        -194.503
C32  23655566.392          36.000        2489.681       -2488.547
R14  21489866.578          37.000           0.000        1452.143
R02  23636072.091           9.000           0.000       -3314.969
C37  22833913.511          32.000           0.000        -891.491
R18  20529138.176           9.000           0.000       -3945.094
R13  21131807.957          19.000           0.000       -1977.725
G25  24858958.501          24.000       -6842.095         651.380
C30  24171676.197          17.000           0.000       -4273.498
R17  22808819.686          12.000           0.000       -6172.404
C29  24324907.017          12.000           0.000       -2242.309
R03  21376572.010          36.000           0.000       -2340.419
R04  22046416.287          22.000           0.000       -1069.028
E33  24179591.017          32.000           0.065       -3919.610
C06  35954560.676          24.000       26970.797       -1801.954
C08  35854029.772          33.000        7517.566       -1252.694
C09  36832871.334          18.000       24344.461       -1633.642
R19  21205670.523          22.000           0.000        -905.865
C13  36140201.159          34.000       13413.296       -1119.571
C16  36184407.656          25.000       28910.242       -1932.828
C27  26555925.016          26.000           0.000       -4616.646
C23  25054737.366          28.000       52333.468       -3496.435
C46  24539066.158          21.000      -12967.552        1175.132
C38  35923104.352          24.000           0.000       -1603.157
E04  26238013.102          17.000       13412.977        -960.598
E12  24430062.520          36.000           0.404       -1113.929
E19  24844650.606          19.000       33213.903       -2561.018
G15  22313666.570          29.000       59012.584       -3937.935
> 2023 07 25 09 19 41.000001   0 36
C39  36011233.442          27.000           0.000       -2119.404
G10  24152884.606          26.000      -11865.096         742.790
C20  23140390.441          28.000           0.000       -1018.709
G12  24322931.385          20.000       -5727.463         349.542
G18  20525178.515          39.000        4394.803       -2196.533
G23  21527255.791          40.000        -133.982          47.141
G24  20270268.285          42.000       14618.367       -2922.219
J03  35974525.954          38.000        6428.607       -2139.055
G32  24603301.489          25.000        3031.654        -194.465
C32  23656043.062          35.000        4977.006       -2486.464
R14  21489582.675          39.000           0.000        1455.157
R02  23636683.368          10.000           0.000       -3317.146
C37  22834082.893          32.000           0.000        -889.824
R18  20529875.966           9.000           0.000       -3944.353
R13  21132172.804          19.000           0.000       -1980.270
G25  24858829.590          25.000       -7493.820         652.579
C30  24172495.829          16.000           0.000       -4273.244
R17  22809962.794          10.000           0.000       -6172.891
C29  24325337.519          13.000           0.000       -2243.023
R03  21377008.808          35.000           0.000       -2338.173
R04  22046608.753          20.000           0.000       -1072.787
E33  24180337.201          32.000        3919.509       -3919.851
C06  35954902.439          24.000       28772.583       -1801.691
C08  35854269.606          33.000        8768.247       -1249.280
C09  36833183.718          17.000       25983.234       -1638.815
R19  21205843.503          20.000           0.000        -913.886
C13  36140417.310          33.000           0.300       -1118.182
C16  36184774.302          25.000       30841.199       -1929.477
C27  26556812.701          27.000           0.000       -4613.135
C23  25055405.604          27.000       55828.308       -3493.764
C46  24538829.022          20.000      -14143.932        1179.282
C38  35923411.939          21.000           0.000       -1599.934
E04  26238204.069          18.000       14373.354        -959.942
E12  24430275.072          35.000        1112.062       -1109.654
E19  24845137.769          18.000       35774.765       -2560.991
G15  22314414.852          31.000       62950.040       -3936.164
> 2023 07 25 09 19 42.000001   0 36
C39  36011639.361          27.000           0.000       -2115.702
G10  24152744.003          25.000      -12608.963         744.779
C20  23140594.600          28.000           0.000       -1016.878
G12  24322872.326          20.000       -6078.819         352.221
G18  20525594.926          38.000        6590.728       -2195.718
G23  21527247.996          39.000        -181.693          47.648
G24  20270823.201          40.000       17540.673       -2922.486
J03  35974932.772          37.000        8568.696       -2141.295
G32  24603341.661          25.000        3225.254        -193.342
C32  23656516.434          34.000        7463.002       -2485.871
R14  21489304.167          41.000           0.000        1454.549
R02  23637301.540          10.000           0.000       -3314.957
C37  22834256.173          33.000           0.000        -889.429
R18  20530612.556           9.000           0.000       -3945.109
R13  21132539.450          21.000           0.000       -1975.022
G25  24858703.078          25.000       -8146.632         653.162
C30  24173315.162          15.000           0.000       -4271.769
R17  22811113.098           9.000           0.000       -6174.223
C29  24325768.321          14.000           0.000       -2238.875
R03  21377446.805          35.000           0.000       -2336.179
R04  22046807.816          21.000           0.000       -1065.657
E33  24181084.284          32.000        7837.938       -3919.397
C06  35955242.404          18.000       30571.619       -1796.968
C08  35854512.138          33.000       10017.701       -1250.575
C09  36833496.101          15.000       27620.515       -1641.334
R19  21206014.984          22.000           0.000        -900.465
C13  36140632.860          34.000        1116.926       -1115.636
C16  36185143.347          23.000       32769.600       -1926.737
C27  26557698.288          23.000           0.000       -4607.713
C23  25056074.441          27.000       59321.466       -3492.348
C46  24538595.484          20.000      -15325.840        1183.240
C38  35923721.025          19.000           0.000       -1600.730
E04  26238395.037          19.000       15332.361        -958.624
E12  24430487.925          36.000        2222.955       -1111.794
E19  24845624.032          19.000       38332.574       -2556.768
G15  22315164.633          32.000       66885.306       -3934.551
> 2023 07 25 09 19 43.000001   0 37
C39  36012045.879          27.000           0.000       -2118.777
G10  24152603.101          27.000      -13354.090         744.982
C20  23140800.257          26.000           0.000       -1017.158
G12  24322811.468          21.000       -6432.640         355.583
G18  20526013.137          39.000        8788.534       -2199.014
G23  21527241.101          39.000        -228.109          44.578
G24  20271381.115          41.000       20464.795       -2925.404
J03  35975338.691          37.000       10710.131       -2143.006
G29  25148327.775          14.000           0.000       -4121.519
G32  24603377.636          24.000        3417.493        -192.034
C32  23656994.603          32.000        9950.253       -2489.155
R14  21489028.658          41.000           0.000        1452.678
R02  23637918.812          10.000           0.000       -3318.076
C37  22834427.655          34.000           0.000        -891.938
R18  20531341.351           9.000           0.000       -3945.949
R13  21132900.101          21.000           0.000       -1978.706
G25  24858577.765          26.000       -8800.782         653.361
C30  24174132.696          15.000           0.000       -4256.788
R17  22812262.802           9.000           0.000       -6174.228
C29  24326197.624          15.000           0.000       -2229.589
R03  21377883.302          34.000           0.000       -2335.827
R04  22047008.677          25.000           0.000       -1070.976
E33  24181829.268          31.000       11757.977       -3920.264
C06  35955584.167          18.000       32368.300       -1796.589
C08  35854753.770          33.000       11268.451       -1253.204
C09  36833808.485          16.000       29260.868       -1636.941
R19  21206179.570          21.000           0.000        -917.004
C13  36140846.613          33.000        2234.774       -1119.097
C16  36185513.290          24.000       34696.122       -1927.150
C27  26558583.875          24.000           0.000       -4606.854
C23  25056744.177          27.000       62813.480       -3492.322
C46  24538360.746          19.000      -16509.272        1186.206
C38  35924028.912          20.000           0.000       -1600.735
E04  26238583.906          19.000       16289.071        -958.358
E12  24430697.480          36.000        3335.408       -1113.993
E19  24846108.797          20.000       40885.937       -2556.035
G15  22315918.011          34.000           0.119       -3932.167
> 2023 07 25 09 19 44.000001   0 37
C39  36012452.698          27.000           0.000       -2118.201
G10  24152463.997          25.000      -14097.927         742.892
C20  23141007.714          24.000           0.000       -1019.422
G12  24322750.011          20.000       -6788.956         354.793
G18  20526431.647          38.000       10988.792       -2201.905
G23  21527230.608          38.000        -272.584          43.972
G24  20271938.129          40.000       23391.421       -2927.554
J03  35975746.709          37.000       12853.411       -2143.799
G29  25149099.141          14.000           0.556       -4118.672
G32  24603410.313          21.000        3609.941        -194.294
C32  23657479.668          31.000       12439.346       -2490.995
R14  21488763.941          41.000           0.000        1450.297
R02  23638536.085          10.000           0.000       -3330.379
C37  22834602.434          35.000           0.000        -894.890
R18  20532076.142           9.000           0.000       -3946.909
R13  21133258.053          21.000           0.000       -1979.204
G25  24858453.651          26.000       -9453.763         652.886
C30  24174948.731          15.000           0.000       -4258.378
R17  22813405.611           9.000           0.000       -6175.612
C29  24326625.128          15.000           0.000       -2223.688
R03  21378323.098          33.000           0.000       -2337.744
R04  22047209.238          25.000           0.000       -1067.974
E33  24182577.550          32.000       15680.110       -3922.822
C06  35955928.029          17.000       34164.528       -1797.306
C08  35854994.204          32.000       12521.137       -1253.278
C09  36834119.370          15.000       30896.955       -1632.845
R19  21206347.454          20.000           0.000        -916.166
C13  36141060.964          33.000        3354.453       -1119.977
C16  36185884.433          22.000       36623.434       -1927.274
C27  26559471.860          24.000           0.000       -4609.742
C23  25057413.014          27.000       66306.233       -3493.900
C46  24538129.007          19.000      -17694.374        1184.761
C38  35924340.397          21.000           0.000       -1601.492
E04  26238770.977          18.000       17247.886        -960.432
E12  24430909.134          35.000        4450.172       -1115.496
E19  24846595.360          20.000       43442.573       -2556.390
G15  22316667.792          34.000        3937.459       -3938.101
> 2023 07 25 09 19 45.000001   0 37
C39  36012859.216          28.000           0.000       -2120.297
G10  24152322.495          25.000      -14839.529         740.616
C20  23141211.573          25.000           0.000       -1023.116
G12  24322686.455          19.000       -7144.435         356.412
G18  20526850.157          38.000       13191.158       -2203.804
G23  21527218.017          38.000        -315.392          41.126
G24  20272497.842          40.000       26320.172       -2930.373
J03  35976151.129          37.000       14998.099       -2146.327
G29  25149898.388           9.000        4117.699       -4119.483
G32  24603445.089          14.000        3804.502        -196.523
C32  23657953.939          28.000       14929.747       -2492.013
R14  21488497.126          41.000           0.000        1449.048
R02  23639153.058          11.000           0.000       -3337.438
C37  22834774.814          36.000           0.000        -895.985
R18  20532820.227           9.000           0.000       -3948.590
R13  21133624.100          20.000           0.000       -1973.376
G25  24858329.237          25.000      -10105.130         649.560
C30  24175764.467          15.000           0.000       -4258.023
R17  22814552.617           9.000           0.000       -6175.383
C29  24327051.433          14.000           0.000       -2230.257
R03  21378758.397          32.000           0.000       -2339.419
R04  22047414.296          26.000           0.000       -1074.180
E33  24183326.132          30.000       19604.004       -3926.238
C06  35956269.792          16.000       35960.960       -1795.848
C08  35855228.642          32.000       13775.375       -1255.931
C09  36834428.756          15.000       32527.317       -1628.402
R19  21206518.636          21.000           0.000        -908.824
C13  36141275.016          34.000        4475.524       -1121.265
C16  36186254.078          20.000       38551.619       -1930.224
C27  26560360.445          23.000           0.000       -4613.165
C23  25058083.650          27.000       69801.898       -3496.966
C46  24537898.167          18.000      -18879.761        1185.917
C38  35924651.881          21.000           0.000       -1603.753
E04  26238959.546          18.000       18209.458        -962.415
E12  24431120.187          35.000        5566.818       -1119.943
E19  24847081.024          20.000       45998.896       -2555.491
G15  22317419.972          34.000        7876.275       -3939.754
> 2023 07 25 09 19 46.000001   0 37
C39  36013267.234          26.000           0.000       -2119.109
G10  24152173.798          20.000      -15578.895         737.505
