     3.02           OBSERVATION DATA    M (MIXED)           RINEX VERSION / TYPE
ANDROID_RINEX       UNKN                2023-07-25 17:36:42 PGM / RUN BY / DATE
Generated by Rokubun's android_rinex program                COMMENT
Four doubts or inquiries, reach us at info@rokubun.cat      COMMENT
                                                            MARKER NAME
LU                  LSGI                                    OBSERVER / AGENCY
Samsung Note8       mobiles             Android7.0          REC # / TYPE / VERS
UNKN                UNKN                                    ANT # / TYPE
        0.0000        0.0000        0.0000                  APPROX POSITION XYZ
        0.0000        0.0000        0.0000                  ANTENNA: DELTA H/E/N
G    4 C1C S1C L1C D1C                                      SYS / # / OBS TYPES
R    4 C1C S1C L1C D1C                                      SYS / # / OBS TYPES
E    4 C1C S1C L1C D1C                                      SYS / # / OBS TYPES
C    4 C1I S1I L1I D1I                                      SYS / # / OBS TYPES
J    4 C1C S1C L1C D1C                                      SYS / # / OBS TYPES
  2023    07    24    08    49    09.154912                 TIME OF FIRST OBS
                                                            END OF HEADER
> 2023 07 24 08 49 09.154912   0  6
G15  21684607.858          32.000           0.000       -5800.731
G18  20838926.911          32.000           0.000       -2797.388
G23  22482913.503          28.000           0.000       -1822.330
G05  23578204.049          25.000           0.000       -5601.010
J03  36072176.152          25.000           0.000       -3919.117
R02  21390708.422          31.000           0.000       -4457.534
> 2023 07 24 08 49 10.154912   0 22
G15  21685698.803          26.000           0.000       -5804.019
G18  20839458.143          37.000           0.000       -2802.754
G23  22483258.864          28.000           0.000       -1820.133
G05  23579238.333          21.000           0.000       -5613.468
J03  36072942.721          25.000           0.000       -3930.804
R02  21391537.648          30.000           0.000       -4463.019
G24  20300650.752          27.000           0.000       -3474.809
R24  21409897.238          30.000           0.000       -7664.768
C30  26298564.882          27.000           0.000       -6796.339
R17  20202734.040          23.000           0.000       -4190.921
C06  36202322.654          41.000           0.000       -3569.573
C09  37149935.135          31.000           0.000       -3302.587
C13  36624415.445          26.000           0.000       -2985.278
C16  36381110.781          41.000           0.000       -3671.996
C35  24221126.663          27.000           0.000       -3376.254
C19  23668635.545          28.000           0.000       -3266.977
C20  23481538.669          31.000           0.000       -4573.981
C29  23503011.004          23.000           0.000       -5980.248
C38  36234954.163          28.000           0.000       -3355.949
C39  36124468.051          25.000           0.000       -3805.175
C46  23313926.205          32.000           0.000       -2147.956
R12  21595808.135          23.000           0.000       -2166.757
> 2023 07 24 08 49 10.554912   0 22
G15  21686137.100          25.000           0.000       -5809.742
G18  20839670.996          37.000           0.000       -2805.864
G23  22483396.768          27.000           0.000       -1822.324
G05  23579663.139          21.000           0.000       -5614.948
J03  36073242.514          25.000           0.000       -3931.047
R02  21391869.818          30.000           0.000       -4464.168
G24  20300911.272          27.000           0.000       -3477.859
R24  21410407.485          27.000           0.000       -7664.768
C30  26299053.844          27.000           0.000       -6798.506
R17  20203100.686          23.000           0.000       -4297.770
C06  36202591.268          41.000           0.000       -3564.326
C09  37150190.258          31.000           0.000       -3301.549
C13  36624658.576          26.000           0.000       -2992.763
C16  36381390.787          41.000           0.000       -3673.496
C35  24221363.799          27.000           0.000       -3386.894
C19  23668822.915          28.000           0.000       -3269.867
C20  23481898.420          31.000           0.000       -4574.442
C29  23503469.687          23.000           0.000       -5958.384
C38  36235192.498          28.000           0.000       -3355.905
C39  36124755.852          25.000           0.000       -3829.696
C46  23314087.793          32.000           0.000       -2150.134
R12  21595934.047          19.000           0.000       -2156.487
> 2023 07 24 08 49 11.554912   0 22
G15  21686863.497          22.000           0.000       -3809.037
G18  20839824.790          33.000           0.000        -803.313
G23  22483362.592          25.000           0.000         177.449
G05  23580351.163          16.000           0.000       -3608.300
J03  36073610.359          20.000           0.000       -1923.512
R02  21392320.706          27.000           0.000       -2431.223
G24  20301189.479          23.000           0.000       -1476.005
R24  21411484.939          24.000           0.000       -5628.062
C30  26300005.385          22.000           0.000       -4817.650
R17  20203526.091          23.000           0.000       -2205.154
C06  36202888.362          16.000           0.000       -1560.517
C09  37150442.384          28.000           0.000       -1313.733
C13  36624849.844          26.000           0.000       -1008.365
C16  36381706.469          20.000           0.000       -1690.835
C35  24221632.713          24.000           0.000       -1402.900
C19  23669085.233          21.000           0.000       -1288.720
C20  23482390.979          29.000           0.000       -2591.620
C38  36235507.580          20.000           0.000       -1368.644
C29  23504255.143          22.000           0.000       -3993.775
C39  36125112.605          22.000           0.000       -1849.656
C46  23314122.269          28.000           0.000        -166.231
R12  21595944.240          19.000           0.000        -110.626
> 2023 07 24 08 49 12.554912   0 24
G15  21687586.896          23.000           0.347       -3811.669
G18  20839982.480          28.000           0.225        -805.030
G23  22483327.516          26.000           0.620         173.707
G05  23581039.786          19.000           0.188       -3610.340
J03  36073980.303          19.000           0.317       -1925.152
R02  21392772.793          26.000           0.000       -2433.597
G24  20301468.886          19.000           0.487       -1481.061
R18  22682343.542          19.000           0.000        1048.871
R24  21412560.294          27.000           0.000       -5631.475
C30  26300945.234          23.000           0.000       -4822.987
R17  20203932.910          27.000           0.000       -2210.097
C06  36203184.557           9.000           0.341       -1564.170
C09  37150694.509          28.000           0.022       -1317.186
C13  36625042.011          26.000           0.065       -1011.901
C16  36382020.951           9.000          -0.140       -1691.091
C35  24221902.226          26.000           0.000       -1404.525
C19  23669347.552          21.000           0.524       -1293.914
C20  23482882.938          27.000           0.225       -2593.896
C38  36235742.917          20.000           0.000       -1379.500
C29  23505021.412          23.000           0.020       -3992.793
C36  25236066.235          20.000           0.000        1095.447
C39  36125466.360          15.000           0.178       -1843.850
C46  23314154.047          27.000          -0.178        -167.350
R12  21595957.131          18.000           0.000        -109.924
> 2023 07 24 08 49 14.000560   0 28
G15  21688623.279          18.000           0.254       -3811.549
G18  20840192.335          30.000           0.977        -806.247
G23  22483270.556          25.000           0.478         171.242
G05  23582039.594          23.000           0.403       -3614.679
J03  36074498.045          20.000           0.690       -1922.395
R02  21393416.148          22.000           0.000       -2434.574
G24  20301859.515          20.000           0.518       -1485.308
R18  22682046.148          21.000           0.000        1045.465
R24  21414115.917          21.000           0.000       -5635.588
C30  26302274.514          31.000           0.000       -4825.711
R17  20204516.905          25.000           0.000       -2215.892
C06  36203603.667           9.000           0.989       -1564.889
C09  37151050.663          27.000           0.682       -1320.295
C13  36625308.527          26.000           0.895       -1013.545
C16  36382469.740           9.000           0.992       -1687.564
C35  24222289.858          29.000           0.000       -1407.968
C19  23669718.095          20.000           0.989       -1304.034
C20  23483591.948          24.000           0.043       -2596.281
C38  36236124.853          21.000           0.000       -1376.506
C29  23506121.651          23.000           0.537       -3992.428
C36  25235795.522          10.000          -0.688        1087.408
C37  25138564.134          18.000           0.000       -2877.093
E36  23854536.248          25.000           0.000       -1293.511
C39  36125968.812          27.000           0.075       -1835.540
C46  23314193.620          25.000           0.748        -175.268
J02  37602697.894          18.000           0.000       -1773.891
R12  21595975.419          18.000           0.000        -111.931
C03  36206374.948          38.000           0.000       -1880.255
> 2023 07 24 08 49 15.000560   0 30
G15  21689338.583          17.000        3811.831       -3811.135
G18  20840345.529          30.000         807.880        -807.687
G23  22483236.080          26.000        -169.903         170.035
G05  23582733.313          21.000        3615.826       -3616.196
J03  36074860.494          26.000        1922.849       -1922.081
R02  21393872.732          18.000           0.000       -2434.811
G24  20302137.423          20.000        1485.943       -1485.127
R18  22681855.480          22.000           0.000        1041.206
R24  21415186.177          20.000           0.000       -5633.439
C30  26303199.374          30.000           0.000       -4823.722
R17  20204924.923          24.000           0.000       -2218.873
R03  22733455.458          17.000           0.000        -917.730
C39  36126340.555          25.000           0.000       -1843.664
C06  36203896.564           9.000        1566.364       -1564.005
C08  36296216.452          18.000           0.000       -1089.366
C09  37151303.088          28.000        1321.362       -1320.733
C13  36625502.492          25.000        1014.190       -1013.613
C16  36382783.923           9.000        1686.777       -1682.214
C35  24222561.170          28.000           0.000       -1409.302
C19  23669976.516          20.000        1305.389       -1305.138
C20  23484093.500          28.000        2596.014       -2595.781
C38  36236386.572          18.000           0.000       -1378.597
C29  23506888.820          21.000        3992.159       -3991.649
C36  25235589.565          13.000       -1085.779        1081.421
C37  25139152.927          19.000          -0.081       -2857.566
E36  23854779.680          25.000           0.176       -1277.169
C46  23314230.494          21.000         176.311        -176.423
J02  37602983.596           9.000          -0.082       -1776.613
R12  21596000.302          18.000           0.000        -122.926
C03  36206737.097          40.000           0.023       -1881.944
> 2023 07 24 08 49 16.000560   0 31
G15  21690046.393          16.000        7623.235       -3808.758
G18  20840498.723          33.000        1616.262        -809.051
G23  22483202.203          26.000        -340.284         170.521
G05  23583423.735          21.000        7232.605       -3617.335
J03  36075222.643          26.000        3845.803       -1924.234
R02  21394328.716          18.000           0.000       -2436.726
G24  20302414.131          20.000        2970.373       -1484.948
G29  24347564.732          17.000           0.000       -4470.454
R18  22681663.612          24.000           0.000        1035.911
R24  21416251.639          26.000           0.000       -5635.938
C30  26304122.435          27.000           0.000       -4822.228
R17  20205337.437          25.000           0.000       -2219.723
R03  22733541.198          17.000           0.000        -893.602
C39  36126676.622          28.000           0.000       -1838.521
C06  36204187.063           9.000        3129.596       -1562.393
C08  36296375.642          13.000           0.506       -1080.918
C46  23314267.369          23.000           0.000        -173.654
C09  37151555.513          27.000        2642.731       -1321.432
C13  36625695.559          26.000        2027.878       -1013.552
C16  36383097.806           9.000        3363.711       -1669.158
C35  24222831.882          26.000           0.000       -1410.080
C19  23670229.541          22.000        2610.928       -1304.611
C20  23484595.653          30.000        5192.044       -2595.950
C38  36236649.490          19.000           0.000       -1376.610
C29  23507654.190          23.000        7983.935       -3992.653
C36  25235379.710          14.000       -2165.438        1078.950
C37  25139703.945          21.000        2857.639       -2858.673
E36  23855046.195          34.000        1277.289       -1277.403
J02  37603313.967          13.000        1778.088       -1780.010
R12  21596019.788          18.000           0.000        -126.437
C03  36207097.748          40.000        1882.455       -1882.933
> 2023 07 24 08 49 17.000560   0 31
G15  21690769.493          16.000       11432.597       -3809.973
G18  20840651.917          34.000        2426.026        -810.756
G23  22483167.727          25.000        -511.225         170.969
G05  23584115.956          21.000       10850.528       -3618.356
J03  36075585.692          24.000        5771.074       -1925.569
R02  21394783.801          18.000           0.000       -2437.930
G24  20302686.343          20.000        4456.262       -1486.628
G29  24348295.026          15.000          -0.371       -4471.955
R18  22681473.844          25.000           0.000        1036.486
R24  21417320.099          24.000           0.000       -5637.174
C30  26305042.498          28.000           0.000       -4821.405
R17  20205756.247          26.000           0.000       -2219.332
R03  22733711.480          18.000           0.000        -918.586
C39  36127031.576          31.000           0.000       -1847.744
C06  36204477.262           9.000        4690.377       -1557.805
C08  36296598.388          11.000        1081.719       -1082.583
C46  23314237.689          23.000           0.000        -171.803
C09  37151809.737          28.000        3964.865       -1322.388
C13  36625888.625          28.000        3041.121       -1013.530
C16  36383408.390           9.000        5021.292       -1642.964
C35  24223101.096          27.000           0.000       -1411.863
C19  23670483.465          23.000        3913.492       -1301.761
C20  23485096.906          32.000        7787.998       -2595.501
C38  36236912.707          20.000           0.000       -1381.689
C29  23508420.459          24.000       11977.017       -3993.209
C36  25235169.556          15.000       -3244.351        1078.358
C37  25140249.268          22.000        5717.699       -2860.643
E36  23855281.832          34.000        2555.026       -1278.164
J02  37603652.733          12.000        3559.959       -1782.757
R12  21596041.073          16.000           0.000        -125.110
C03  36207459.597          41.000        3765.416       -1882.984
> 2023 07 24 08 49 18.000560   0 31
G15  21691503.984          17.000       15243.021       -3810.354
G18  20840806.310          31.000        3237.019        -811.225
G23  22483135.049          24.000        -682.643         171.325
G05  23584815.672          21.000       14469.280       -3619.785
J03  36075948.740          26.000        7696.305       -1925.375
R02  21395224.496          18.000           0.000       -2443.203
G24  20302960.653          20.000        5944.352       -1488.845
G29  24349164.424          15.000        4470.981       -4471.315
R18  22681284.075          26.000           0.000        1032.490
R24  21418388.859          22.000           0.000       -5637.924
C30  26305963.760          28.000           0.000       -4821.827
R17  20206172.359          24.000           0.000       -2219.772
R03  22733881.163          18.000           0.000        -929.177
C39  36127386.231          32.000           0.000       -1846.705
C06  36204766.861           9.000        6243.342       -1547.485
C08  36296820.834          12.000        2165.280       -1086.550
C46  23314281.459          22.000           0.000        -174.491
C09  37152063.362          27.000        5287.502       -1323.146
C13  36626083.190          27.000        4054.957       -1014.414
C16  36383707.883          31.000        6650.841       -1620.244
C35  24223372.108          25.000           0.000       -1412.539
C19  23670739.788          20.000        5212.413       -1296.997
C20  23485598.159          29.000       10384.206       -2597.344
C38  36237177.124          20.000           0.000       -1383.073
C29  23509187.628          27.000       15970.796       -3994.438
C36  25234960.301          15.000       -4323.915        1081.608
C37  25140797.888          20.000        8579.315       -2861.714
E36  23855512.073          35.000        3833.687       -1277.687
J02  37603990.299          13.000        5345.909       -1787.984
R12  21596066.855          16.000           0.000        -128.114
C03  36207820.547          41.000        5648.038       -1882.577
> 2023 07 24 08 49 19.000560   0 33
G15  21692239.075          17.000       19054.192       -3812.313
G18  20840964.001          29.000        4048.756        -812.199
G23  22483104.770          26.000        -854.149         172.083
G05  23585503.995          21.000       18088.846       -3619.361
J03  36076314.787          22.000        9622.414       -1926.167
R02  21395682.279          18.000           0.000       -2439.240
G24  20303236.162          20.000        7433.250       -1489.761
G29  24350026.927          15.000        8940.715       -4469.086
R18  22681097.304          24.000           0.000        1037.072
E09  24339535.990          22.000           0.000       -2877.499
R24  21419458.519          20.000           0.000       -5640.605
C30  26306888.020          28.000           0.000       -4822.471
R17  20206578.278          22.000           0.000       -2221.094
R03  22734054.443          17.000           0.000        -957.345
C39  36127742.085          30.000           0.000       -1847.322
C06  36205052.564           9.000        7778.914       -1525.243
C08  36297034.286          13.000        3253.127       -1089.895
C46  23314321.631          23.000           0.000        -166.742
C09  37152315.187          26.000        6610.694       -1323.076
C13  36626277.456          25.000        5068.690       -1012.615
C16  36384006.476          37.000        8265.360       -1611.618
C35  24223641.022          26.000           0.000       -1414.552
C19  23670994.611          23.000        6508.482       -1296.125
C20  23486099.112          29.000       12981.827       -2597.827
C38  36237440.042          20.000           0.000       -1376.862
C29  23509955.097          27.000       19965.790       -3995.604
C36  25234753.144          16.000       -5405.506        1081.167
C37  25141345.309          20.000       11443.578       -2865.654
E36  23855749.808          33.000          -0.094       -1282.609
E05  25381019.786          22.000           0.000       -1145.353
J02  37604324.568          13.000        7136.109       -1791.997
R12  21596089.640          14.000           0.000        -139.424
C03  36208180.898          40.000        7530.711       -1883.143
> 2023 07 24 08 49 20.000560   0 33
G15  21692970.569          19.000       22867.355       -3814.248
G18  20841110.300          24.000        4861.038        -812.206
G23  22483077.190          27.000       -1025.329         170.204
G05  23586188.122          17.000       21706.080       -3615.427
J03  36076683.532          21.000       11549.866       -1927.954
R02  21396146.358          18.000           0.000       -2435.152
G24  20303514.669          19.000        8922.758       -1489.955
G29  24350882.235          16.000       13411.090       -4471.812
R18  22680909.035          22.000           0.000        1036.789
E09  24340083.111          22.000          -0.273       -2878.597
R24  21420531.176          21.000           0.000       -5639.686
C30  26307813.480          28.000           0.000       -4822.439
R17  20206989.893          13.000           0.000       -2215.542
R03  22734230.121          17.000           0.000        -963.200
C39  36128098.238          32.000           0.000       -1847.871
C06  36205326.574          29.000        9287.155       -1499.926
C08  36297245.940          15.000        4344.307       -1089.174
C46  23314352.809          18.000           0.000        -164.019
C09  37152568.212          26.000        7933.244       -1323.107
C13  36626472.920          20.000        6082.512       -1014.707
C16  36384307.468          34.000        9876.398       -1611.343
C35  24223907.538          23.000           0.000       -1415.423
C19  23671249.135          23.000        7804.596       -1297.346
C20  23486599.765          27.000       15580.008       -2599.073
C38  36237703.560          21.000           0.000       -1378.372
C29  23510724.064          28.000       23962.085       -3997.286
C36  25234545.088          16.000       -6487.566        1084.249
C37  25141892.730          19.000       14308.801       -2865.241
E36  23855992.040          34.000        1281.198       -1283.003
E05  25381244.930          17.000          -0.575       -1156.533
J02  37604657.337          12.000        8932.690       -1797.955
R12  21596112.124          12.000           0.000        -141.685
C03  36208542.448          41.000        9414.288       -1884.245
> 2023 07 24 08 49 21.000560   0 33
G15  21693694.868          24.000       26682.384       -3816.041
G18  20841263.793          24.000        5673.794        -813.213
G23  22483047.810          27.000       -1195.497         169.980
G05  23586874.946          18.000       25321.649       -3615.621
J03  36077051.977          22.000       13476.952       -1926.954
R02  21396575.361          18.000           0.000       -2435.159
G24  20303797.374          24.000       10414.253       -1493.294
G29  24351733.346          16.000       17882.983       -4470.018
R18  22680720.465          20.000           0.000        1031.877
E09  24340629.933          21.000        2878.997       -2879.202
R24  21421588.844          24.000           0.000       -5639.383
C30  26308738.040          29.000           0.000       -4822.501
R17  20207423.693          15.000           0.000       -2214.473
R03  22734406.999          16.000           0.000        -954.109
C39  36128454.092          34.000           0.000       -1844.894
C06  36205597.287          34.000       10778.352       -1485.810
C08  36297458.792          15.000        5434.362       -1091.569
C46  23314386.686          17.000           0.000        -170.512
C09  37152821.237          25.000        9256.712       -1322.987
C13  36626668.385          23.000        7097.943       -1014.672
E05  25381444.891          19.000           0.000       -1142.216
C16  36384615.655          36.000       11499.816       -1625.240
C35  24224177.351          24.000           0.000       -1416.578
C19  23671499.462          24.000        9102.491       -1297.719
C20  23487103.117          24.000       18178.187       -2596.844
C38  36237969.476          24.000           0.000       -1376.967
C29  23511490.634          28.000       27959.243       -3996.870
C36  25234334.034          16.000       -7573.000        1086.445
C37  25142441.050          17.000       17176.305       -2870.198
E36  23856233.074          30.000        2561.991       -1279.546
J02  37604990.707          11.000       10729.338       -1796.227
R12  21596122.617          14.000           0.000        -138.101
C03  36208903.698          41.000       11298.507       -1883.525
> 2023 07 24 08 49 22.000560   0 33
G15  21694421.864          24.000       30499.167       -3816.791
G18  20841418.786          30.000        6486.358        -812.386
G23  22483013.933          24.000       -1365.617         171.177
G05  23587563.270          24.000       28937.552       -3616.038
J03  36077413.526          29.000       15402.626       -1925.121
R02  21397021.152          17.000           0.000       -2432.191
G24  20304080.677          22.000       11906.105       -1490.259
G29  24352588.654          16.000       22351.319       -4465.090
R18  22680529.198          18.000           0.000        1026.012
E09  24341178.553          17.000        5757.591       -2876.660
R24  21422644.113          25.000           0.000       -5637.489
C30  26309665.897          26.000           0.000       -4821.337
R17  20207834.709          18.000           0.000       -2220.387
R03  22734585.675          24.000           0.000        -945.426
C39  36128809.046          31.000           0.000       -1844.051
C06  36205871.597          30.000       12261.651       -1480.001
C08  36297669.546          16.000        6523.712       -1086.197
C46  23314422.361          17.000           0.000        -173.981
C09  37153076.360          30.000       10578.629       -1321.080
C13  36626866.548          24.000        8110.528       -1011.024
E05  25381665.838          22.000           0.610       -1138.967
C16  36384926.839          41.000           0.545       -1622.330
C35  24224456.458          25.000           0.000       -1413.121
C19  23671747.090          25.000       10400.200       -1297.992
C20  23487603.770          27.000       20774.983       -2596.055
C38  36238233.593          27.000           0.000       -1380.729
C29  23512256.603          25.000       31954.514       -3995.273
C36  25234124.179          18.000       -8660.675        1088.756
C37  25142995.367          16.000       20045.282       -2868.788
E36  23856475.006          38.000        3841.638       -1280.639
J02  37605331.271          12.000       12527.522       -1799.029
R12  21596145.401          17.000           0.000        -136.467
C03  36209265.547          37.000       13173.933       -1865.518
> 2023 07 24 08 49 23.000560   0 33
G15  21695152.458          18.000       34314.325       -3813.828
G18  20841571.680          38.000        7299.078        -813.134
G23  22482985.453          19.000       -1537.004         172.031
G05  23588251.293          26.000       32553.066       -3615.800
J03  36077772.977          30.000       17327.897       -1925.636
R02  21397478.036          25.000           0.000       -2434.590
G24  20304364.281          26.000       13396.291       -1489.898
G29  24353442.762          16.000       26816.360       -4465.124
R18  22680347.524          16.000           0.000        1016.957
E09  24341727.773          17.000        8633.776       -2875.585
R24  21423697.284          22.000           0.000       -5637.308
C30  26310594.355          25.000           0.000       -4822.190
R17  20208249.621          26.000           0.000       -2223.788
R03  22734760.754          22.000           0.000        -939.124
C39  36129166.698          36.000           0.000       -1844.894
C06  36206151.903          26.000       13743.333       -1484.544
C08  36297880.001          15.000        7606.578       -1079.005
C46  23314460.735          24.000           0.000        -175.397
C09  37153329.985          29.000       11899.573       -1320.651
C13  36627064.111          15.000        9122.472       -1012.107
E05  25381878.691          20.000        1139.618       -1139.204
C16  36385238.623          37.000        1624.099       -1627.061
C35  24224732.267          23.000           0.000       -1412.525
C19  23671990.522          29.000       11697.603       -1297.924
C20  23488104.124          31.000       23370.724       -2594.692
C38  36238500.108          26.000           0.000       -1378.964
C29  23513023.772          24.000       35949.952       -3993.647
C36  25233913.725          19.000       -9750.379        1090.044
C37  25143551.182          16.000       22912.351       -2865.521
E36  23856722.035          40.000        5122.230       -1287.213
J02  37605677.231          14.000       14326.595       -1800.019
R12  21596170.284          18.000           0.000        -134.653
C03  36209624.399          26.000       15048.847       -1881.180
> 2023 07 24 08 49 24.000560   0 33
G15  21695873.759          21.000       38128.497       -3815.154
G18  20841725.773          32.000        8113.561        -817.049
G23  22482952.776          20.000       -1707.634         169.977
G05  23588938.118          22.000       36172.136       -3620.699
J03  36078137.225          27.000       19254.232       -1928.067
R02  21397943.314          31.000           0.000       -2438.214
G24  20304644.887          23.000       14888.317       -1492.556
G29  24354296.571          16.000       31280.703       -4460.364
R18  22680153.258          16.000           0.000        1008.104
E09  24342276.093          17.000       11512.541       -2881.921
R24  21424743.560          28.000           0.000       -5639.935
C30  26311522.212          27.000           0.000       -4823.394
R17  20208667.832          25.000           0.000       -2228.219
R03  22734934.034          24.000           0.000        -936.039
C39  36129528.248          28.000           0.000       -1847.516
C06  36206434.007          25.000       15230.738       -1491.332
C08  36298087.457          15.000        8686.220       -1080.823
C46  23314500.607          22.000           0.000        -178.241
C09  37153584.509          31.000       13221.758       -1323.780
C13  36627253.580          24.000       10135.439       -1013.541
E05  25382104.135          23.000        2280.229       -1142.069
C16  36385548.309          36.000        3251.089       -1627.428
C35  24225009.575          27.000           0.000       -1415.821
C19  23672238.151          20.000       12995.559       -1299.230
C20  23488602.979          29.000       25967.037       -2597.800
C38  36238772.920          26.000           0.000       -1380.907
C29  23513788.843          19.000       39944.340       -3995.528
C36  25233704.770          20.000      -10839.626        1087.707
C37  25144101.601          16.000       25777.956       -2865.648
E36  23856971.163          33.000        6407.523       -1285.025
J02  37606017.496          15.000       16128.131       -1802.069
R12  21596196.066          20.000           0.000        -132.659
C03  36209982.950          24.000       16916.036       -1863.055
> 2023 07 24 08 49 25.000560   0 33
G15  21696604.953          21.000       41943.675       -3815.798
G18  20841887.362          36.000        8932.382        -820.424
G23  22482923.696          20.000       -1877.123         168.197
G05  23589622.544          19.000       39792.845       -3621.786
J03  36078501.773          20.000       21183.290       -1930.566
R02  21398401.396          31.000           0.000       -2439.187
G24  20304927.291          18.000       16380.989       -1494.695
G29  24355147.382          16.000       35741.074       -4461.217
R18  22679961.691          16.000           0.000        1006.902
E09  24342823.514          17.000       14393.801       -2881.914
R24  21425794.632          29.000           0.000       -5642.897
C30  26312447.971          27.000           0.000       -4825.015
R17  20209082.445          25.000           0.000       -2233.264
R03  22735109.712          16.000           0.000        -938.042
C39  36129887.399          22.000           0.000       -1850.521
C06  36206717.011          25.000       16723.621       -1494.764
C08  36298295.213          14.000        9767.970       -1083.867
C46  23314544.377          17.000           0.000        -181.490
C09  37153839.932          33.000       14546.690       -1325.739
C13  36627447.546          27.000       11149.599       -1015.236
E05  25382318.487          19.000        3424.084       -1145.510
C16  36385864.590          37.000        4879.272       -1628.814
C35  24225291.080          25.000           0.000       -1418.406
C19  23672480.383          20.000       14297.038       -1302.934
C20  23489103.632          33.000       28566.221       -2600.446
C38  36239037.336          25.000           0.000       -1383.161
C29  23514558.110          25.000       43941.776       -3999.951
C36  25233496.114          20.000      -11928.103        1088.203
C37  25144651.720          17.000       28644.785       -2867.858
E36  23857216.693          36.000        7693.799       -1285.982
J02  37606356.561          16.000       17932.734       -1807.509
R12  21596226.645          20.000           0.000        -137.684
C03  36210341.202          24.000       18783.607       -1866.601
> 2023 07 24 08 49 26.000560   0 33
G15  21697332.249          21.000       45760.243       -3816.402
G18  20842042.354          36.000          -0.208        -819.787
G23  22482891.018          21.000       -2043.822         166.125
G05  23590310.868          26.000       43415.277       -3623.962
J03  36078864.222          29.000       23114.814       -1932.392
R02  21398863.077          31.000           0.000       -2438.140
G24  20305209.696          19.000       17877.085       -1498.146
G29  24356001.791          15.000       40203.544       -4465.970
R18  22679770.423          16.000           0.000        1004.001
E09  24343371.535          17.000       17276.659       -2883.376
R24  21426849.003          29.000           0.000       -5644.861
C30  26313374.030          23.000           0.000       -4827.230
R17  20209503.653          24.000           0.000       -2236.304
R03  22735288.389          15.000           0.000        -936.852
C39  36130242.653          28.000           0.000       -1852.668
C06  36207006.011          27.000       18221.632       -1500.653
C08  36298506.867          14.000       10852.466       -1085.128
C46  23314584.549          20.000           0.000        -183.338
C09  37154095.055          32.000       15873.747       -1327.973
C13  36627641.811          28.000       12165.912       -1017.646
E05  25382533.738          14.000        4568.414       -1145.006
C16  36386177.573          39.000        6508.451       -1628.420
C35  24225570.187          25.000           0.000       -1419.930
C19  23672727.112          24.000       15602.205       -1306.144
C20  23489603.986          32.000       31167.662       -2601.727
C38  36239305.651          23.000           0.000       -1384.282
C29  23515328.277          25.000       47942.567       -4002.506
C36  25233285.960          21.000      -13015.047        1085.969
C37  25145200.340          18.000       31513.898       -2870.605
E36  23857452.929          38.000        8981.200       -1286.748
J02  37606697.125          16.000       19741.064       -1809.778
R12  21596254.226          19.000           0.000        -139.690
C03  36210701.553          25.000       20657.995       -1882.144
> 2023 07 24 08 49 27.000560   0 34
G15  21698056.848          21.000       49577.235       -3818.926
G18  20842201.244          38.000         821.154        -821.944
G23  22482861.339          15.000       -2210.173         166.098
G05  23590999.191          22.000       47038.950       -3624.241
J03  36079232.067          28.000       25047.528       -1933.046
R02  21399332.552          27.000           0.000       -2440.862
G24  20305497.497          19.000       19376.316       -1500.414
G29  24356856.499          16.000       44669.442       -4464.641
R18  22679582.453          16.000           0.000        1010.551
E09  24343919.555          16.000       20160.334       -2883.316
R01  23140196.777          17.000           0.000       -3520.510
R24  21427901.574          27.000           0.000       -5646.715
C30  26314301.588          25.000           0.000       -4827.961
R17  20209926.361          24.000           0.000       -2236.383
R03  22735459.570          17.000           0.000        -942.014
C39  36130597.308          31.000           0.000       -1852.216
C06  36207301.607          32.000       19724.133       -1504.137
C08  36298718.520          14.000       11940.317       -1091.507
C46  23314625.621          27.000           0.000        -184.263
C09  37154349.579          30.000       17201.441       -1328.346
C13  36627837.875          27.000       13183.916       -1018.934
E05  25382747.490          15.000        5712.391       -1143.653
C16  36386486.659          37.000        8137.991       -1630.258
C35  24225842.099          25.000           0.000       -1421.029
C19  23672978.638          26.000       16909.015       -1307.014
C20  23490099.842          32.000       33768.346       -2600.685
C38  36239579.961          22.000           0.000       -1386.079
C29  23516098.444          26.000       51946.212       -4004.086
C36  25233075.805          24.000      -14100.489        1085.235
C37  25145751.658          17.000       34385.952       -2872.696
E36  23857694.262          38.000       10269.387       -1289.411
J02  37607043.985          17.000       21552.147       -1812.004
R12  21596288.702          20.000           0.000        -136.442
C03  36211063.402          26.000       22542.429       -1887.563
> 2023 07 24 08 49 28.000560   0 34
G15  21698779.947          21.000       53397.211       -3820.908
G18  20842353.239          35.000        1643.632        -822.506
G23  22482830.760          27.000       -2376.592         165.465
G05  23591688.414          26.000       50663.786       -3625.955
J03  36079599.313          33.000       26981.099       -1933.733
R02  21399799.928          36.000           0.000       -2442.247
G24  20305786.197          24.000       20876.911       -1499.796
G29  24357708.809          15.000       49136.082       -4467.226
R18  22679394.184          24.000           0.000        1021.016
E09  24344467.576          16.000       23044.874       -2884.985
R01  23140948.656           9.000           0.000       -3468.602
R24  21428955.344          27.000           0.000       -5647.201
C30  26315225.848          32.000           0.000       -4827.317
R17  20210337.976          22.000           0.000       -2237.280
R03  22735630.752          19.000           0.000        -965.822
C39  36130951.962          26.000           0.000       -1852.875
C06  36207595.703          31.000       21228.936       -1505.685
C08  36298926.276          16.000       13034.054       -1096.485
C46  23314663.095          20.000           0.000        -184.964
C09  37154606.501          32.000       18529.858       -1328.441
C13  36628035.439          24.000       14202.684       -1018.772
E05  25382964.839          16.000        6857.870       -1146.625
C16  36386797.544          33.000        9768.110       -1629.815
C35  24226115.809          25.000           0.000       -1421.403
C19  23673227.166          28.000       18215.916       -1305.692
C20  23490599.297          32.000       36369.678       -2602.001
C38  36239853.971          22.000           0.000       -1387.919
C29  23516872.808          23.000       55951.647       -4005.967
C36  25232865.651          20.000      -15185.556        1084.296
C37  25146302.077          18.000       37258.537       -2871.928
E36  23857942.490          39.000       11558.470       -1288.396
J02  37607388.147          18.000       23362.678       -1809.125
R12  21596319.281          20.000           0.000        -136.055
C03  36211429.149          30.000       24432.283       -1891.975
> 2023 07 24 08 49 29.000560   0 34
G15  21699497.351          23.000       57216.874       -3819.412
G18  20842509.431          37.000        2466.234        -822.429
G23  22482796.284          28.000       -2541.987         165.975
G05  23592377.037          27.000       54288.800       -3624.865
J03  36079968.058          33.000       28914.250       -1932.939
R02  21400258.910          38.000           0.000       -2441.299
G24  20306076.995          25.000       22376.943       -1500.368
G29  24358560.220          15.000       53605.281       -4473.549
R18  22679203.516          21.000           0.000        1026.873
E09  24345017.095          15.000       25929.937       -2884.520
R01  23141548.541           9.000           0.000       -3467.859
R24  21430003.719          29.000           0.000       -5647.051
C30  26316148.310          30.000           0.000       -4827.554
R17  20210763.081          19.000           0.000       -2236.641
R03  22735807.030          19.000           0.000        -955.718
C39  36131309.015          23.000           0.000       -1853.010
C06  36207888.301          28.000       22734.676       -1506.164
C08  36299134.332          17.000       14131.505       -1097.966
C46  23314701.168          26.000           0.000        -184.683
C09  37154862.524          34.000       19858.334       -1328.437
C13  36628231.203          22.000       15223.589       -1021.982
E05  25383181.289          25.000        8004.858       -1147.631
C16  36387112.926          36.000       11397.960       -1628.727
C35  24226388.920          26.000           0.000       -1422.018
C19  23673476.293          30.000       19520.785       -1303.695
C20  23491098.451          30.000       38970.588       -2600.456
C38  36240124.084          22.000           0.000       -1390.008
C29  23517647.771          21.000       59957.596       -4006.533
C36  25232657.295          21.000      -16270.384        1084.966
C37  25146854.295          18.000       40129.072       -2871.262
E36  23858190.718          38.000       12847.546       -1288.694
J02  37607732.009          24.000       25169.597       -1805.477
R12  21596346.562          26.000           0.000        -135.139
C03  36211794.596          36.000       26325.644       -1893.844
> 2023 07 24 08 49 30.000560   0 34
G15  21700213.255          23.000       61036.441       -3820.713
G18  20842669.520          37.000        3289.243        -824.457
G23  22482763.307          27.000       -2708.163         166.474
G05  23593064.761          26.000       57914.426       -3625.432
J03  36080346.396          32.000       30846.562       -1932.076
R02  21400728.086          37.000           0.000       -2441.331
G24  20306368.693          25.000       23877.064       -1499.849
C37  25147554.610          20.000           0.000       -2868.199
G29  24359414.928          13.000       58078.401       -4472.374
R18  22679006.852          20.000           0.000        1029.389
E09  24345566.315          15.000       28814.279       -2886.300
R01  23142188.298           9.000           0.000       -3477.238
R24  21431050.894          28.000           0.000       -5646.686
C30  26317072.870          31.000           0.000       -4826.054
R17  20211180.392          17.000           0.000       -2239.863
R03  22735981.509          19.000           0.000        -946.893
C39  36131665.468          29.000           0.000       -1850.627
C06  36208180.898          24.000       24240.037       -1505.685
C08  36299342.388          18.000       15229.035       -1097.557
C46  23314739.242          23.000           0.000        -184.725
C09  37155123.643          34.000       21185.718       -1327.329
C13  36628427.867          19.000       16245.977       -1021.989
E05  25383398.039          23.000        9152.470       -1147.513
C16  36387426.209          35.000       13027.722       -1630.389
C35  24226660.232          26.000           0.000       -1423.758
C19  23673725.121          31.000       20824.016       -1302.577
C20  23491597.006          30.000       41570.801       -2599.982
C38  36240393.298          22.000           0.000       -1384.993
C29  23518422.435          20.000       63964.242       -4005.500
C36  25232450.738          23.000      -17355.177        1084.020
E36  23858437.447          38.000       14136.884       -1289.894
J02  37608073.772          26.000       26974.830       -1804.830
R12  21596375.342          24.000           0.000        -137.380
C03  36212160.643          34.000       28219.956       -1894.339
> 2023 07 24 08 49 31.000560   0 34
G15  21700930.658          12.000       64855.213       -3818.547
G18  20842827.811          36.000        4112.818        -821.272
G23  22482730.929          25.000       -2875.796         169.228
G05  23593752.485          25.000       61539.168       -3625.550
J03  36080715.141          30.000       32777.928       -1928.020
R02  21401190.066          37.000           0.000       -2445.340
G24  20306656.194          24.000       25377.037       -1499.374
C37  25148065.157          22.000           0.000       -2869.699
G29  24360268.137          12.000       62553.660       -4479.075
R18  22678815.584          17.000           0.000        1027.348
E09  24346114.935          14.000       31699.420       -2884.761
R01  23142837.948           9.000           0.000       -3484.607
R24  21432094.771          27.000           0.000       -5646.858
C30  26317998.928          30.000           0.000       -4824.955
R17  20211589.309          17.000           0.000       -2238.517
R03  22736158.386          19.000           0.000        -955.775
C39  36132020.723          29.000           0.000       -1851.536
C06  36208471.397          27.000       25744.710       -1503.745
C08  36299552.243          18.000       16328.169       -1099.628
C46  23314776.116          19.000           0.000        -183.161
C09  37155378.767          33.000          -0.316       -1329.394
C13  36628623.632          19.000       17268.466       -1021.951
E05  25383614.789          22.000       10299.847       -1147.277
C16  36387738.293          31.000       14657.412       -1630.071
C35  24226931.844          23.000           0.000       -1423.909
C19  23673974.548          30.000       22126.559       -1302.253
C20  23492096.160          30.000       44171.195       -2600.876
C38  36240665.509          21.000           0.000       -1386.596
C29  23519198.598          22.000       67968.473       -4001.975
C36  25232244.780          23.000      -18437.922        1081.919
E36  23858685.975          37.000       15426.373       -1287.271
J02  37608414.936          25.000       28779.279       -1804.983
R12  21596401.124          20.000           0.000        -127.922
C03  36212525.490          33.000       30114.136       -1893.979
> 2023 07 24 08 49 32.000560   0 34
G15  21701655.257          20.000       68673.357       -3817.708
G18  20842984.602          31.000        4935.192        -821.984
G23  22482698.252          27.000       -3045.572         169.747
G05  23594440.509          24.000       65164.632       -3625.671
J03  36081082.386          25.000       34706.784       -1929.085
R02  21401644.551          35.000           0.000       -2440.828
G24  20306946.993          24.000       26877.709       -1499.329
C37  25148611.379          23.000           0.000       -2880.605
G29  24361124.345          12.000       67033.415       -4479.038
R18  22678623.417          17.000           0.000        1022.499
E09  24346663.556          13.000       34582.295       -2879.875
R01  23143491.795           9.000           0.000       -3513.804
R24  21433142.246          27.000           0.000       -5646.256
C30  26318924.388          29.000           0.000       -4822.386
R17  20212014.715          25.000           0.000       -2236.712
R03  22736337.962          20.000           0.000        -947.129
C39  36132375.677          27.000           0.000       -1851.227
C06  36208760.397          29.000       27247.839       -1502.832
C08  36299762.397          18.000       17426.114       -1096.142
C46  23314803.697          20.000           0.000        -182.265
C09  37155629.393          28.000        1327.582       -1328.581
C13  36628818.497          21.000       18289.160       -1018.314
E05  25383832.438          15.000       11447.707       -1147.894
C16  36388050.976          26.000       16286.914       -1629.431
C35  24227206.154          23.000           0.000       -1423.689
C19  23674223.076          30.000       23428.400       -1301.721
C20  23492594.715          29.000       46772.436       -2601.350
C38  36240933.524          19.000           0.000       -1385.656
C29  23519969.964          18.000       71971.645       -4004.226
C36  25232040.022          20.000      -19521.750        1084.545
E36  23858930.306          32.000       16716.134       -1290.642
J02  37608754.001          21.000       30584.022       -1804.132
R12  21596429.604          15.000           0.000        -133.702
C03  36212889.738          32.000       32007.193       -1892.462
> 2023 07 24 08 49 33.000560   0 35
G15  21702381.354          23.000       72490.682       -3817.210
G18  20843139.895          35.000        5757.995        -823.665
G23  22482664.975          29.000       -3215.000         168.803
G05  23595124.036          20.000       68789.474       -3624.637
J03  36081447.534          29.000       36637.053       -1931.499
R02  21402100.835          33.000           0.000       -2439.358
G24  20307238.991          18.000       28377.765       -1499.753
C37  25149162.997          24.000           0.000       -2883.890
G29  24361980.552          14.000       71510.569       -4475.519
R18  22678424.655          18.000           0.000        1022.038
E09  24347211.576          13.000       37462.559       -2877.817
R01  23144150.140          10.000           0.000       -3545.816
R24  21434188.821          24.000           0.000       -5646.432
C30  26319852.845          35.000           0.000       -4823.361
R17  20212433.825          25.000           0.000       -2237.147
R03  22736507.944          19.000           0.000        -942.985
C39  36132731.530          32.000           0.000       -1851.544
C06  36209049.097          30.000       28750.387       -1501.912
C08  36299973.152          17.000       18522.316       -1095.469
C46  23314835.475          24.000           0.000        -181.578
C09  37155883.017          26.000        2656.057       -1328.687
C13  36629010.364          22.000       19307.130       -1017.479
E05  25384049.788          24.000       12595.005       -1146.922
C16  36388365.759          33.000       17915.907       -1628.795
C35  24227483.762          25.000           0.000       -1422.886
C19  23674471.005          34.000       24730.046       -1301.937
C20  23493093.270          31.000       49372.427       -2599.092
C38  36241201.238          21.000           0.000       -1383.704
C29  23520739.831          17.000       75977.188       -4006.744
C36  25231837.063          19.000      -20606.838        1085.691
E36  23859174.038          37.000       18006.294       -1290.943
J02  37609093.366          18.000       32387.427       -1801.580
C02  37402889.219          37.000           0.000       -1867.733
R12  21596451.189          13.000           0.000        -147.316
C03  36213253.986          35.000       33899.227       -1891.159
> 2023 07 24 08 49 34.000560   0 35
G15  21703106.552          26.000       76308.502       -3819.235
G18  20843293.688          31.000        6582.109        -825.187
G23  22482631.098          29.000       -3383.516         168.374
G05  23595813.258          23.000       72414.294       -3625.084
J03  36081815.079          29.000       38567.851       -1931.040
R02  21402554.421          31.000           0.000       -2438.165
G24  20307528.291          20.000       29878.829       -1503.376
C37  25149713.116          21.000           0.000       -2873.972
G29  24362837.059          15.000       75984.570       -4473.662
R18  22678228.590          19.000           0.000        1019.222
E09  24347758.997          13.000       40341.061       -2879.296
R01  23144816.578          10.000           0.000       -3564.311
R24  21435244.690          25.000           0.000       -5646.356
C30  26320778.604          32.000           0.000       -4822.445
R17  20212859.230          24.000           0.000       -2238.432
R03  22736681.824          20.000           0.000        -943.855
C39  36133086.185          31.000           0.000       -1852.369
C06  36209338.097          26.000       30251.983       -1502.127
C08  36300182.706          17.000       19618.269       -1094.488
C46  23314864.255          19.000           0.000        -182.858
C09  37156136.942          25.000        3984.624       -1327.969
C13  36629203.430          24.000       20325.116       -1017.853
E05  25384267.138          22.000       13741.704       -1146.470
C16  36388679.341          34.000       19544.608       -1625.270
C35  24227760.770          24.000           0.000       -1422.869
C19  23674719.233          32.000       26031.632       -1301.384
C20  23493592.724          29.000       51971.560       -2599.568
C38  36241469.253          18.000           0.000       -1380.977
C29  23521507.299          17.000       79983.388       -4005.478
C36  25231628.407          19.000      -21692.655        1086.789
E36  23859416.570          37.000          -0.015       -1290.526
J02  37609431.532          17.000       34188.205       -1798.890
C02  37403244.473          34.000          -0.153       -1867.406
R12  21596482.967          16.000           0.000        -151.899
C03  36213616.135          34.000       35789.736       -1889.490
> 2023 07 24 08 49 35.000560   0 36
G15  21703830.551          22.000       80127.130       -3817.847
G18  20843452.878          39.000        7407.104        -825.028
G23  22482598.121          27.000       -3551.883         168.278
G05  23596505.179          22.000       76038.974       -3623.973
J03  36082183.524          29.000       40499.113       -1931.243
R02  21403009.206          33.000           0.000       -2438.240
G13  24270708.738          15.000           0.000       -4894.528
G24  20307811.595          19.000       31382.676       -1503.942
C37  25150263.835          23.000           0.000       -2876.543
G29  24363694.765          16.000       80457.530       -4470.375
R18  22678033.126          19.000           0.000        1021.289
E09  24348307.617          13.000       43220.538       -2880.319
R01  23145487.814          12.000           0.000       -3577.339
R24  21436293.964          22.000           0.000       -5646.936
C30  26321710.659          29.000           0.000       -4823.069
R17  20213296.927          18.000           0.000       -2245.489
R03  22736860.201          20.000           0.000        -948.277
C39  36133441.139          32.000           0.000       -1850.545
C06  36209626.797          35.000       31754.512       -1503.176
C08  36300391.962          18.000       20712.134       -1093.933
C46  23314899.931          20.000           0.000        -184.011
C09  37156392.665          30.000        5312.207       -1326.909
C13  36629402.792          22.000       21342.460       -1017.161
E05  25384485.686          24.000       14888.019       -1146.380
C16  36388989.926          28.000       21171.394       -1628.931
C35  24228034.481          29.000           0.000       -1423.974
C19  23674968.960          32.000       27334.231       -1303.374
C20  23494089.780          25.000       54571.090       -2599.612
C38  36241733.970          19.000           0.000       -1379.985
C29  23522270.871          18.000       83988.682       -4005.360
C36  25231424.248          25.000      -22779.369        1084.857
E36  23859659.701          36.000        1289.662       -1289.258
J02  37609770.897          19.000       35987.343       -1800.034
C02  37403603.624          31.000        1867.581       -1866.977
R12  21596510.848          24.000           0.000        -146.898
C03  36213976.786          31.000       37678.621       -1888.084
> 2023 07 24 08 49 36.000560   0 35
G15  21704553.051          25.000       83943.953       -3816.847
G18  20843609.070          32.000        8232.480        -825.494
G23  22482562.146          25.000       -3721.380         169.188
G05  23597197.400          22.000       79663.386       -3625.083
J03  36082549.571          27.000       42430.121       -1930.934
R02  21403457.996          30.000           0.000       -2438.961
G13  24271644.990          13.000          -0.734       -4893.101
G24  20308100.295          23.000       32886.944       -1504.133
C37  25150816.952          20.000           0.000       -2874.507
G29  24364554.870          16.000       84932.238       -4474.060
R18  22677839.460          20.000           0.000        1020.517
E09  24348855.638          14.000       46098.090       -2876.943
R01  23146156.950          12.000           0.000       -3572.133
R24  21437349.533          32.000           0.000       -5647.177
C30  26322637.617          26.000           0.000       -4825.531
R17  20213714.838          23.000           0.000       -2242.621
R03  22737028.384          23.000           0.000        -951.732
C39  36133795.194          30.000           0.000       -1852.502
C06  36209916.097          32.000       33258.430       -1504.808
C08  36300603.315          19.000       21809.313       -1096.958
C46  23314935.006          20.000           0.000        -185.065
C09  37156650.186          24.000        6640.270       -1328.868
C13  36629595.559          19.000       22358.993       -1016.337
E05  25384703.036          17.000       16034.106       -1146.226
C16  36389304.409          29.000       22800.849       -1630.556
C35  24228307.292          28.000           0.000       -1425.049
C19  23675215.090          21.000       28637.227       -1303.323
C20  23494588.035          34.000       57170.668       -2599.741
C38  36241995.389          20.000           0.000       -1382.155
C29  23523038.040          18.000       87992.553       -4002.728
C36  25231215.893          20.000      -23864.992        1086.016
E36  23859906.430          30.000        2580.113       -1291.230
J02  37610112.661          19.000       37787.200       -1799.616
C02  37403962.176          23.000        3739.318       -1877.116
R12  21596544.425          22.000           0.000        -140.724
> 2023 07 24 08 49 37.000560   0 35
G15  21705276.450          30.000       87760.888       -3817.049
G18  20843764.362          32.000        9059.060        -827.213
G23  22482528.869          23.000       -3889.874         170.026
